[{"stop_id":"0","stop_name":"Narela Terminal","lat":28.851958,"lng":77.088107},{"stop_id":"1","stop_name":"Police Station Narela","lat":28.853311,"lng":77.088548},{"stop_id":"2","stop_name":"Safiyabad Crossing","lat":28.854965,"lng":77.089322},{"stop_id":"3","stop_name":"Ramdev Chowk / Pitori Johad","lat":28.857713,"lng":77.092846},{"stop_id":"4","stop_name":"Narela A-6 / CPJ College","lat":28.857684,"lng":77.097117},{"stop_id":"5","stop_name":"State Bank Of Allahbad","lat":28.854724,"lng":77.097933},{"stop_id":"6","stop_name":"Sec A-9 Narela","lat":28.851769,"lng":77.097906},{"stop_id":"7","stop_name":"Narela Pocket 13 / A-9","lat":28.851771,"lng":77.097849},{"stop_id":"8","stop_name":"Narela Pocket 13 / A-6","lat":28.848993,"lng":77.098485},{"stop_id":"9","stop_name":"Raja Harish Chandra Hospital","lat":28.840804,"lng":77.10202},{"stop_id":"10","stop_name":"Kasturi Ram School","lat":28.837226,"lng":77.098578},{"stop_id":"11","stop_name":"Munim Ji Ka Bagh","lat":28.83657,"lng":77.09201},{"stop_id":"12","stop_name":"New Anaj Mandi","lat":28.838193,"lng":77.091456},{"stop_id":"13","stop_name":"Kurani More","lat":28.840582,"lng":77.090589},{"stop_id":"14","stop_name":"Prem Nagar Narela","lat":28.837755,"lng":77.081097},{"stop_id":"15","stop_name":"Maharaja Agrassen School","lat":28.83657,"lng":77.079258},{"stop_id":"16","stop_name":"Bharat Mata School","lat":28.833186,"lng":77.077052},{"stop_id":"17","stop_name":"Kaushal Devi Netraheen Ashram","lat":28.825219,"lng":77.069668},{"stop_id":"18","stop_name":"Sannoth Crossing / Ghoga Crossing","lat":28.819549,"lng":77.06355},{"stop_id":"19","stop_name":"Delhi Jal Board Bawana","lat":28.815434,"lng":77.058213},{"stop_id":"20","stop_name":"Jain Bekhunth Mandir","lat":28.811811,"lng":77.053975},{"stop_id":"21","stop_name":"Bawana JJ Colony CRPF Camp","lat":28.806738,"lng":77.048163},{"stop_id":"23","stop_name":"Swaroop Nagar GT Road","lat":28.758318,"lng":77.148305},{"stop_id":"24","stop_name":"Libas Pur GT Road","lat":28.75027,"lng":77.15075},{"stop_id":"25","stop_name":"Sanjay Gandhi Transport Nagar","lat":28.7402,"lng":77.154},{"stop_id":"26","stop_name":"Mukarba Chowk","lat":28.735084,"lng":77.155874},{"stop_id":"27","stop_name":"GTK Depot","lat":28.731117,"lng":77.158967},{"stop_id":"28","stop_name":"Jahangirpuri GT Road (Metro Station)","lat":28.7257,"lng":77.163},{"stop_id":"29","stop_name":"Mahindra Park","lat":28.721715,"lng":77.166162},{"stop_id":"30","stop_name":"Sarai Pipal Thala","lat":28.7206,"lng":77.1671},{"stop_id":"31","stop_name":"Adarsh Nagar Metro Station","lat":28.717467,"lng":77.169917},{"stop_id":"32","stop_name":"New Sabzi Mandi","lat":28.714415,"lng":77.172422},{"stop_id":"33","stop_name":"Azadpur Terminal (Bara Bagh Road)","lat":28.7065332223827,"lng":77.1792795874857},{"stop_id":"34","stop_name":"Bara Bagh","lat":28.7017,"lng":77.1831},{"stop_id":"35","stop_name":"Gujranwala Town","lat":28.6995,"lng":77.1849},{"stop_id":"36","stop_name":"Telephone Exchange","lat":28.6971,"lng":77.1869},{"stop_id":"37","stop_name":"State Bank Colony","lat":28.6954,"lng":77.1883},{"stop_id":"38","stop_name":"Gurudwara Nanak Pyau","lat":28.691,"lng":77.192},{"stop_id":"39","stop_name":"Rana Pratap Bagh","lat":28.6882666666667,"lng":77.1937},{"stop_id":"40","stop_name":"Gur Mandi","lat":28.6848,"lng":77.1963},{"stop_id":"41","stop_name":"Roop Nagar / Shakti Nagar (GT Road)","lat":28.682832,"lng":77.197614},{"stop_id":"42","stop_name":"Clock Tower","lat":28.677617,"lng":77.201567},{"stop_id":"43","stop_name":"Roshnara Bagh","lat":28.6733,"lng":77.2018},{"stop_id":"44","stop_name":"Roshnara Road","lat":28.669249,"lng":77.20455},{"stop_id":"45","stop_name":"Ice Factory (Roshanara Road)","lat":28.667538,"lng":77.207439},{"stop_id":"46","stop_name":"St Stephen Hospital","lat":28.667356,"lng":77.215047},{"stop_id":"47","stop_name":"Tees Hazari Court","lat":28.666864,"lng":77.218926},{"stop_id":"48","stop_name":"ISBT Nityanand Marg","lat":28.668328,"lng":77.225017},{"stop_id":"49","stop_name":"ISBT Bridge","lat":28.669469,"lng":77.228659},{"stop_id":"50","stop_name":"Metro Train Depot","lat":28.673867,"lng":77.241633},{"stop_id":"51","stop_name":"Metro Train Depot","lat":28.674383,"lng":77.243117},{"stop_id":"52","stop_name":"Shyam Giri Mandir","lat":28.6741,"lng":77.24775},{"stop_id":"53","stop_name":"Shastri Park GT Road","lat":28.6734543883493,"lng":77.2519536225461},{"stop_id":"54","stop_name":"Shastri Park GT Road","lat":28.6726111562185,"lng":77.2572326120276},{"stop_id":"55","stop_name":"Dharampura GT Road","lat":28.6712510847409,"lng":77.2616747919392},{"stop_id":"56","stop_name":"Seelampur Metro Station","lat":28.670783,"lng":77.265423},{"stop_id":"57","stop_name":"Seelam Pur Petrol Pump","lat":28.672117,"lng":77.273467},{"stop_id":"58","stop_name":"Welcome Metro Station","lat":28.6725362922399,"lng":77.2763248221347},{"stop_id":"59","stop_name":"Shahdara (Shyam Lal College)","lat":28.6736,"lng":77.283533},{"stop_id":"60","stop_name":"Mansarovar Park Metro Station","lat":28.6759,"lng":77.2999},{"stop_id":"61","stop_name":"Telephone Exchange","lat":28.676067,"lng":77.30925},{"stop_id":"62","stop_name":"Dilshad Garden GT Road","lat":28.67615,"lng":77.311883},{"stop_id":"63","stop_name":"Shahdara Border Circle","lat":28.676518,"lng":77.321617},{"stop_id":"64","stop_name":"Surya Nagar (Gazipur Road)","lat":28.666390619,"lng":77.3215430001921},{"stop_id":"65","stop_name":"Ram Prastha Temple","lat":28.662479,"lng":77.320324},{"stop_id":"66","stop_name":"Ram Prastha Crossing","lat":28.6608,"lng":77.3202},{"stop_id":"67","stop_name":"Anand Vihar ISBT Main Road","lat":28.647061,"lng":77.317903},{"stop_id":"69","stop_name":"Kair Depot","lat":28.618288,"lng":76.930672},{"stop_id":"70","stop_name":"Mitraon Village (Dhansa Road)","lat":28.6082685799431,"lng":76.9447822575366},{"stop_id":"71","stop_name":"Mitraon School","lat":28.607199,"lng":76.939964},{"stop_id":"72","stop_name":"Surehra Crossing","lat":28.6042512214927,"lng":76.9324376475528},{"stop_id":"73","stop_name":"Rawta Crossing (Dhansa Road)","lat":28.6001675792429,"lng":76.9161323561128},{"stop_id":"74","stop_name":"Jaffarpur Kalan RTRM Hospital","lat":28.594840102931,"lng":76.9153475629006},{"stop_id":"75","stop_name":"Samaspur Khalsa","lat":28.578394,"lng":76.909982},{"stop_id":"76","stop_name":"Tikri Border Metro Station","lat":28.688069174713,"lng":76.9654397279275},{"stop_id":"77","stop_name":"Tikari Village","lat":28.6875,"lng":76.9708},{"stop_id":"78","stop_name":"Tikri Hospital","lat":28.6869,"lng":76.9783},{"stop_id":"79","stop_name":"Tikri Piyau / Azad Hind Gram","lat":28.686817,"lng":76.979933},{"stop_id":"80","stop_name":"Indian Oil Corporation","lat":28.686267,"lng":76.986533},{"stop_id":"81","stop_name":"Ghevra Crossing (Kanjhawala Road)","lat":28.686112,"lng":76.994467},{"stop_id":"82","stop_name":"FCI Ghevra","lat":28.69285,"lng":76.993943},{"stop_id":"83","stop_name":"Ghevra Village","lat":28.696524,"lng":76.997956},{"stop_id":"84","stop_name":"Sir Chhotu Ram Polytechnic","lat":28.707239,"lng":77.001132},{"stop_id":"85","stop_name":"Haryana Shakti School Kanjhawla","lat":28.7141664299404,"lng":77.0031881385706},{"stop_id":"86","stop_name":"Desu Sub Station","lat":28.723483,"lng":77.004474},{"stop_id":"88","stop_name":"Kanjhawala Village","lat":28.733592,"lng":77.004502},{"stop_id":"89","stop_name":"Kanjhawla Chowk","lat":28.738005,"lng":77.007551},{"stop_id":"90","stop_name":"Kanjhawla School","lat":28.738824,"lng":77.008263},{"stop_id":"91","stop_name":"Chandpur Kalan Crossing","lat":28.751435,"lng":77.014409},{"stop_id":"92","stop_name":"Chand Pur Village","lat":28.75137,"lng":77.00975},{"stop_id":"93","stop_name":"Chand Pur Village","lat":28.75329,"lng":77.00775},{"stop_id":"94","stop_name":"Chand Pur Majra School","lat":28.75895,"lng":76.99894},{"stop_id":"95","stop_name":"Majra Dabas Village","lat":28.76899,"lng":76.99852},{"stop_id":"96","stop_name":"Prem Piyau","lat":28.7666506423272,"lng":77.0164091280802},{"stop_id":"97","stop_name":"Shri Krishna Gaushala","lat":28.779779,"lng":77.021947},{"stop_id":"98","stop_name":"Bajit Pur Crossing","lat":28.7850261947954,"lng":77.0238674277204},{"stop_id":"99","stop_name":"Krishna Vihar","lat":28.787599,"lng":77.025648},{"stop_id":"100","stop_name":"Ishwar Colony","lat":28.794529,"lng":77.029967},{"stop_id":"101","stop_name":"Panchayat Ghar","lat":28.797939,"lng":77.031709},{"stop_id":"102","stop_name":"Primary School","lat":28.797795,"lng":77.034329},{"stop_id":"103","stop_name":"Bawana Village Chowk","lat":28.800379,"lng":77.036058},{"stop_id":"104","stop_name":"Badli Railway Staion","lat":28.74539,"lng":77.13727},{"stop_id":"106","stop_name":"Prem Nagar","lat":28.743133,"lng":77.146286},{"stop_id":"107","stop_name":"Ice Factory (Nityanand Marg)","lat":28.6676101,"lng":77.210806},{"stop_id":"108","stop_name":"ISBT Kashmere Gate (Lothian Road)","lat":28.665616,"lng":77.230079},{"stop_id":"109","stop_name":"Guru Govind Singh University (Kashmere Gate)","lat":28.665677,"lng":77.230238},{"stop_id":"110","stop_name":"GPO","lat":28.661738,"lng":77.235311},{"stop_id":"111","stop_name":"Old Delhi Railway Station (T)","lat":28.660050681036,"lng":77.2278921212096},{"stop_id":"112","stop_name":"Shahdara Terminal","lat":28.67409,"lng":77.286865},{"stop_id":"113","stop_name":"Shahdara (Shyam Lal College)","lat":28.6730434411508,"lng":77.2827487465114},{"stop_id":"114","stop_name":"Kanti Nagar Extension","lat":28.6704,"lng":77.2809},{"stop_id":"115","stop_name":"Jharkhandi","lat":28.66785,"lng":77.28225},{"stop_id":"116","stop_name":"East Azad Nagar","lat":28.666167,"lng":77.283917},{"stop_id":"117","stop_name":"Swaran Cinema","lat":28.663502,"lng":77.285917},{"stop_id":"118","stop_name":"Krishna Nagar A Block","lat":28.661,"lng":77.2878},{"stop_id":"119","stop_name":"Hans Apartment","lat":28.6582,"lng":77.29},{"stop_id":"120","stop_name":"Arjun Nagar","lat":28.6564,"lng":77.2915},{"stop_id":"121","stop_name":"Radheypuri","lat":28.654,"lng":77.2925},{"stop_id":"122","stop_name":"Jagatpuri  A Block","lat":28.651637,"lng":77.293123},{"stop_id":"123","stop_name":"Jagatpuri F-Block","lat":28.648036,"lng":77.295529},{"stop_id":"124","stop_name":"Gagan Vihar","lat":28.6455,"lng":77.2979},{"stop_id":"125","stop_name":"Karkardooma Xing","lat":28.642867,"lng":77.29725},{"stop_id":"126","stop_name":"New Rajdhani Enclave","lat":28.64215,"lng":77.29625},{"stop_id":"127","stop_name":"Preet Vihar","lat":28.639333,"lng":77.292417},{"stop_id":"128","stop_name":"Nirman Vihar","lat":28.636783,"lng":77.287683},{"stop_id":"129","stop_name":"Shakarpur Crossing","lat":28.635367,"lng":77.28495},{"stop_id":"130","stop_name":"Shakarpur","lat":28.633394,"lng":77.281942},{"stop_id":"131","stop_name":"Laxmi Nagar","lat":28.6313,"lng":77.2789},{"stop_id":"132","stop_name":"Rainy Well","lat":28.628033,"lng":77.260933},{"stop_id":"133","stop_name":"Delhi Secretariat","lat":28.62795,"lng":77.25235},{"stop_id":"134","stop_name":"ITO","lat":28.627967,"lng":77.244433},{"stop_id":"135","stop_name":"Tilak Bridge","lat":28.6253,"lng":77.2387},{"stop_id":"136","stop_name":"Mandi House","lat":28.625633,"lng":77.234},{"stop_id":"137","stop_name":"Mandi House","lat":28.625035,"lng":77.230571},{"stop_id":"138","stop_name":"Kasturba Gandhi Road Crossing","lat":28.623228,"lng":77.226725},{"stop_id":"139","stop_name":"Firoz Shah Road","lat":28.621,"lng":77.2215},{"stop_id":"140","stop_name":"Le Meridian Hotel / Rajendra Prasad Road","lat":28.619225,"lng":77.217521},{"stop_id":"141","stop_name":"Krishi Bhawan","lat":28.616983,"lng":77.2137},{"stop_id":"142","stop_name":"Red Cross Road","lat":28.618035,"lng":77.210453},{"stop_id":"143","stop_name":"Aakashwani Bhawan (Imtiyaz Ali Road)","lat":28.62065,"lng":77.2098},{"stop_id":"144","stop_name":"Gurudwara Rakab Ganj Road","lat":28.6209,"lng":77.2073},{"stop_id":"145","stop_name":"Kendriya Terminal (Church Road)","lat":28.617383,"lng":77.20395},{"stop_id":"146","stop_name":"Najafgarh Terminal","lat":28.614614,"lng":76.978024},{"stop_id":"147","stop_name":"Jharoda Crossing/Nazafgarh Terminal","lat":28.613617,"lng":76.979717},{"stop_id":"148","stop_name":"Jharoda Crossing","lat":28.6144807426422,"lng":76.9810620215328},{"stop_id":"149","stop_name":"Health Centre","lat":28.61415,"lng":76.985217},{"stop_id":"150","stop_name":"NajafGarh Delhi Gate","lat":28.612627,"lng":76.986253},{"stop_id":"151","stop_name":"Tuda Mandi","lat":28.612622,"lng":76.99151},{"stop_id":"154","stop_name":"Nangli Sakrawati","lat":28.614667,"lng":77.0034},{"stop_id":"155","stop_name":"Nangli Sakrawati Crossing","lat":28.6163352570658,"lng":77.0073543378838},{"stop_id":"156","stop_name":"Arjun Park","lat":28.618,"lng":77.012067},{"stop_id":"157","stop_name":"Chhathh Ghat Park","lat":28.619105,"lng":77.015167},{"stop_id":"158","stop_name":"Nangli Dairy","lat":28.620133,"lng":77.01795},{"stop_id":"159","stop_name":"Kakrola Bridge","lat":28.6202099508252,"lng":77.0241265592978},{"stop_id":"160","stop_name":"Kakrola More","lat":28.6191819992233,"lng":77.0292680534555},{"stop_id":"161","stop_name":"Kakrola More","lat":28.6191187419137,"lng":77.0317966190821},{"stop_id":"162","stop_name":"Dwarka More Metro Station (Sewak Park)","lat":28.6193619889124,"lng":77.0331014179019},{"stop_id":"163","stop_name":"Rama Park","lat":28.6199180152742,"lng":77.0365693721528},{"stop_id":"164","stop_name":"Mohan Garden","lat":28.62029,"lng":77.039178},{"stop_id":"165","stop_name":"Nawada Gaon","lat":28.6203564,"lng":77.0449947},{"stop_id":"166","stop_name":"Kiran Garden","lat":28.620876,"lng":77.049338},{"stop_id":"167","stop_name":"Om Vihar","lat":28.621124,"lng":77.051543},{"stop_id":"168","stop_name":"Prem Nagar","lat":28.621946,"lng":77.056321},{"stop_id":"169","stop_name":"Uttam Nagar","lat":28.623017,"lng":77.06031},{"stop_id":"170","stop_name":"Uttam Nagar / A1 Janak Puri","lat":28.624813,"lng":77.067696},{"stop_id":"171","stop_name":"Tilak Pul","lat":28.621617,"lng":77.069969},{"stop_id":"172","stop_name":"Jivan park","lat":28.620041,"lng":77.073165},{"stop_id":"173","stop_name":"C-1 Janak Puri","lat":28.618239,"lng":77.076935},{"stop_id":"175","stop_name":"C-2 Janak Puri","lat":28.616152,"lng":77.081383},{"stop_id":"176","stop_name":"C2D Janak Puri","lat":28.614365,"lng":77.085484},{"stop_id":"177","stop_name":"Dabri Crossing (Pankha Road)","lat":28.61305,"lng":77.088391},{"stop_id":"178","stop_name":"Janak Cinema","lat":28.611026,"lng":77.093012},{"stop_id":"179","stop_name":"Desu Colony Janak Puri","lat":28.610049,"lng":77.095367},{"stop_id":"180","stop_name":"SagarPur Vashisht park","lat":28.609265,"lng":77.100931},{"stop_id":"181","stop_name":"D Block Janak Puri","lat":28.61096,"lng":77.103583},{"stop_id":"182","stop_name":"Lajwanti Garden","lat":28.614,"lng":77.1062},{"stop_id":"183","stop_name":"Lajwanti Garden (Carriappa Marg)","lat":28.61313,"lng":77.109679},{"stop_id":"184","stop_name":"Janak Setu","lat":28.6107,"lng":77.1139},{"stop_id":"185","stop_name":"Supply Depot","lat":28.606783,"lng":77.123367},{"stop_id":"186","stop_name":"Kirbi Place","lat":28.604833,"lng":77.128283},{"stop_id":"187","stop_name":"Thimiyan Park","lat":28.602817,"lng":77.133517},{"stop_id":"188","stop_name":"S O Flats Carriappa Marg","lat":28.600317,"lng":77.139733},{"stop_id":"189","stop_name":"R R Line","lat":28.596167,"lng":77.1504},{"stop_id":"190","stop_name":"Golf Club","lat":28.592967,"lng":77.158483},{"stop_id":"191","stop_name":"Dhaula Kuan","lat":28.592987,"lng":77.162865},{"stop_id":"192","stop_name":"BBM Cluster Depot","lat":28.704301,"lng":77.21131},{"stop_id":"193","stop_name":"Sewa Kutir","lat":28.702162,"lng":77.209581},{"stop_id":"194","stop_name":"GTB Nagar / Haqiqat Nagar","lat":28.698158,"lng":77.207636},{"stop_id":"195","stop_name":"INS Hostel","lat":28.696197,"lng":77.21214},{"stop_id":"196","stop_name":"Vishwa Vidyalaya Metro Station","lat":28.695022,"lng":77.215318},{"stop_id":"197","stop_name":"Mall Road","lat":28.69382,"lng":77.218624},{"stop_id":"198","stop_name":"Banarsi Daas Estate Timarpur","lat":28.69714,"lng":77.220359},{"stop_id":"199","stop_name":"Timarpur","lat":28.701025,"lng":77.22127},{"stop_id":"200","stop_name":"Balak Ram Hospital","lat":28.7054,"lng":77.2231666666667},{"stop_id":"201","stop_name":"Police Station Timarpur","lat":28.706947,"lng":77.224038},{"stop_id":"202","stop_name":"Nehru Vihar Crossing","lat":28.709086,"lng":77.22626},{"stop_id":"203","stop_name":"Wazirabad Crossing","lat":28.711529,"lng":77.228752},{"stop_id":"204","stop_name":"Gurudwara Nanak Sar","lat":28.710233,"lng":77.241367},{"stop_id":"205","stop_name":"Pusta No 1 Sonia Vihar","lat":28.7189,"lng":77.24325},{"stop_id":"206","stop_name":"Pusta No 2 Sonia Vihar","lat":28.721517,"lng":77.243867},{"stop_id":"207","stop_name":"Pusta No 3 Sonia Vihar","lat":28.725583,"lng":77.2448},{"stop_id":"208","stop_name":"Gatta Factory Sonia Vihar","lat":28.730183,"lng":77.24575},{"stop_id":"209","stop_name":"Sonia Vihar","lat":28.7324,"lng":77.246233},{"stop_id":"210","stop_name":"Pusta No 5 Sonia Vihar","lat":28.734583,"lng":77.246633},{"stop_id":"211","stop_name":"Check Post","lat":28.739367,"lng":77.24745},{"stop_id":"212","stop_name":"Annpurna Mandir","lat":28.74245,"lng":77.246567},{"stop_id":"213","stop_name":"Sabhapur More","lat":28.750167,"lng":77.24385},{"stop_id":"214","stop_name":"Chauhan Patti (Terminal)","lat":28.754767,"lng":77.24325},{"stop_id":"215","stop_name":"NHAI Building/ Dwarka Sec-10 Metro Station","lat":28.578409,"lng":77.058932},{"stop_id":"216","stop_name":"Dwarka Sec-19 Modern School","lat":28.578591,"lng":77.054908},{"stop_id":"217","stop_name":"Amrohi More","lat":28.574383,"lng":77.05115},{"stop_id":"218","stop_name":"St Marry School","lat":28.573412,"lng":77.048418},{"stop_id":"219","stop_name":"Police Post","lat":28.577292,"lng":77.035195},{"stop_id":"220","stop_name":"Qutub Vihar Phase-I Kikar Stand","lat":28.578247,"lng":77.02915},{"stop_id":"221","stop_name":"Jhankar Crossing","lat":28.57905,"lng":77.024348},{"stop_id":"222","stop_name":"Goyla Dairy","lat":28.579766,"lng":77.021478},{"stop_id":"223","stop_name":"Nehru Bus Stand Goyla Dairy","lat":28.580346,"lng":77.019327},{"stop_id":"224","stop_name":"St Thomas School Goyla Vihar","lat":28.581816,"lng":77.015072},{"stop_id":"225","stop_name":"Taj Pur More","lat":28.58327,"lng":77.011534},{"stop_id":"226","stop_name":"Goyla Village","lat":28.587476,"lng":77.008636},{"stop_id":"227","stop_name":"Shyam Vihar","lat":28.591403,"lng":77.000404},{"stop_id":"228","stop_name":"Goela Dairy Crossing","lat":28.591721,"lng":76.992877},{"stop_id":"229","stop_name":"Deenpur Village","lat":28.593389,"lng":76.991941},{"stop_id":"230","stop_name":"Durga Vihar","lat":28.596621,"lng":76.990298},{"stop_id":"231","stop_name":"BDO Office","lat":28.600768,"lng":76.988661},{"stop_id":"232","stop_name":"Chhawla Stand Najafgarh","lat":28.60799,"lng":76.985536},{"stop_id":"233","stop_name":"Police Station NajafGarh","lat":28.6103186141233,"lng":76.9813376578563},{"stop_id":"235","stop_name":"Dichau Chowk","lat":28.617676,"lng":76.984284},{"stop_id":"236","stop_name":"Udaseen Ashram","lat":28.621747,"lng":76.98804},{"stop_id":"237","stop_name":"Nirmal Vihar","lat":28.625259,"lng":76.992196},{"stop_id":"238","stop_name":"Dichau Kalan Depot","lat":28.629304,"lng":76.997733},{"stop_id":"239","stop_name":"Azadpur Terminal","lat":28.707525,"lng":77.177797},{"stop_id":"240","stop_name":"New Sabzi Mandi","lat":28.7139,"lng":77.1725},{"stop_id":"241","stop_name":"Adarsh Nagar / Bharola Village","lat":28.715917,"lng":77.170867},{"stop_id":"242","stop_name":"Sarai Peepal Thala","lat":28.720417,"lng":77.166983},{"stop_id":"243","stop_name":"Mahindra Park","lat":28.7215333333333,"lng":77.166},{"stop_id":"244","stop_name":"Jahangir Puri GT Road","lat":28.7251,"lng":77.163217},{"stop_id":"245","stop_name":"Jahangir Puri Metro Station","lat":28.7273,"lng":77.161583},{"stop_id":"246","stop_name":"GTK Depot","lat":28.731183,"lng":77.158617},{"stop_id":"247","stop_name":"Mukarba Chowk","lat":28.734723,"lng":77.155831},{"stop_id":"248","stop_name":"Mukraba Chowk / Sanjay Gandhi Transport Nagar","lat":28.738473,"lng":77.154112},{"stop_id":"249","stop_name":"Libas Pur GT Road","lat":28.752467,"lng":77.149383},{"stop_id":"250","stop_name":"Swaroop Nagar GT Road","lat":28.75805,"lng":77.14765},{"stop_id":"251","stop_name":"Gurudwara Siraspur GT Road","lat":28.76486,"lng":77.145315},{"stop_id":"252","stop_name":"Nangli Poona More","lat":28.771708,"lng":77.142899},{"stop_id":"253","stop_name":"Khera Garhi","lat":28.771944,"lng":77.121967},{"stop_id":"254","stop_name":"Khera Kalan School","lat":28.771903,"lng":77.117675},{"stop_id":"255","stop_name":"Khera Kalan Gaon","lat":28.772345,"lng":77.115104},{"stop_id":"256","stop_name":"Rishi Dharmarth Chikitsalaya","lat":28.773931,"lng":77.104022},{"stop_id":"257","stop_name":"Khera Khurd Village","lat":28.773923,"lng":77.102521},{"stop_id":"258","stop_name":"Khera Khurd Nahar Crossing","lat":28.773761,"lng":77.09241},{"stop_id":"259","stop_name":"Naya Bans","lat":28.783337,"lng":77.096637},{"stop_id":"260","stop_name":"Mann School","lat":28.793447,"lng":77.095545},{"stop_id":"261","stop_name":"Holambi Khurd DRID College","lat":28.795391,"lng":77.097784},{"stop_id":"262","stop_name":"Holambi Khurd","lat":28.799721,"lng":77.096011},{"stop_id":"263","stop_name":"Holambi Kalan Terminal","lat":28.801883,"lng":77.096003},{"stop_id":"264","stop_name":"Holambi Kalan Crossing","lat":28.809564,"lng":77.107095},{"stop_id":"265","stop_name":"Shahpur Garhi","lat":28.817688,"lng":77.102397},{"stop_id":"266","stop_name":"Narela ITI / Narela Depot","lat":28.820295,"lng":77.101135},{"stop_id":"267","stop_name":"DSIDC Narela","lat":28.821204,"lng":77.100678},{"stop_id":"268","stop_name":"Bhor Garh","lat":28.829162,"lng":77.094509},{"stop_id":"269","stop_name":"Babu Jag Jeevan Ram Colony","lat":28.833012,"lng":77.093266},{"stop_id":"270","stop_name":"Old Anaj Mandi","lat":28.845328,"lng":77.088967},{"stop_id":"271","stop_name":"Narela Primary School","lat":28.847045,"lng":77.088366},{"stop_id":"272","stop_name":"Keshav Nagar Mukti Ashram","lat":28.779253,"lng":77.179936},{"stop_id":"273","stop_name":"Ibrahim Pur More","lat":28.775793,"lng":77.179669},{"stop_id":"274","stop_name":"Natthupura Crossing Terminal","lat":28.768883,"lng":77.180783},{"stop_id":"275","stop_name":"Amrit Vihar Colony","lat":28.7645,"lng":77.1838},{"stop_id":"276","stop_name":"Koushik Enclave","lat":28.761167,"lng":77.188717},{"stop_id":"277","stop_name":"Laxmi Vihar","lat":28.76015,"lng":77.1910833333333},{"stop_id":"278","stop_name":"Ekta Garden Harijan Basti","lat":28.7555,"lng":77.1983},{"stop_id":"279","stop_name":"Burari Village","lat":28.7541,"lng":77.199},{"stop_id":"280","stop_name":"Sarvodhya Vidhyalay Burari","lat":28.7492333333333,"lng":77.1985666666667},{"stop_id":"281","stop_name":"Balti Factory","lat":28.7467,"lng":77.1983},{"stop_id":"282","stop_name":"Sant Nagar Main Market","lat":28.7418,"lng":77.198},{"stop_id":"283","stop_name":"Sant Nagar A1","lat":28.7377,"lng":77.1973},{"stop_id":"284","stop_name":"Jharoda Dairy Crossing","lat":28.734483,"lng":77.197717},{"stop_id":"285","stop_name":"Burari Transport Authority","lat":28.730567,"lng":77.198467},{"stop_id":"286","stop_name":"Nirankari Sarover","lat":28.72773,"lng":77.198067},{"stop_id":"287","stop_name":"CV Raman ITI","lat":28.72095,"lng":77.20015},{"stop_id":"288","stop_name":"Nirankari Colony","lat":28.714883,"lng":77.2041},{"stop_id":"289","stop_name":"Radio Colony","lat":28.7112333333333,"lng":77.2045},{"stop_id":"290","stop_name":"Dhaka Village","lat":28.706789,"lng":77.204733},{"stop_id":"291","stop_name":"Balmiki Gandhi Ashram","lat":28.70458,"lng":77.205033},{"stop_id":"292","stop_name":"TB Hospital","lat":28.700567,"lng":77.205017},{"stop_id":"293","stop_name":"GTB Nagar","lat":28.698294,"lng":77.206554},{"stop_id":"294","stop_name":"Khyber Pass","lat":28.690202,"lng":77.221419},{"stop_id":"295","stop_name":"Vidhan Sabha Metro Station","lat":28.687634,"lng":77.221672},{"stop_id":"296","stop_name":"Old Secretariat (Postal Account Office)","lat":28.683891,"lng":77.222282},{"stop_id":"297","stop_name":"IP College","lat":28.679703,"lng":77.223955},{"stop_id":"298","stop_name":"Exchange Store / Civil Lines Metro Station","lat":28.676602,"lng":77.225033},{"stop_id":"299","stop_name":"Ludlow Castle","lat":28.672405,"lng":77.226008},{"stop_id":"300","stop_name":"ISBT Nityanand Marg","lat":28.668479,"lng":77.226269},{"stop_id":"301","stop_name":"Natthupura Terminal","lat":28.768915,"lng":77.18095},{"stop_id":"303","stop_name":"Sant Nagar A-1","lat":28.7387275691695,"lng":77.1976852838739},{"stop_id":"304","stop_name":"GTB Nagar / Haqiqat Nagar","lat":28.698283,"lng":77.2076},{"stop_id":"305","stop_name":"Sewa Kutir","lat":28.70265,"lng":77.2098166666667},{"stop_id":"306","stop_name":"BBM Cluster Depot","lat":28.704317,"lng":77.211183},{"stop_id":"312","stop_name":"Jasola Vihar","lat":28.5404,"lng":77.2968},{"stop_id":"313","stop_name":"Sarita Vihar K Block","lat":28.538333,"lng":77.291867},{"stop_id":"314","stop_name":"Apollo Hospital","lat":28.539501,"lng":77.282682},{"stop_id":"315","stop_name":"Harkesh Nagar","lat":28.543764,"lng":77.27934},{"stop_id":"316","stop_name":"Okhla Tank","lat":28.548007,"lng":77.276605},{"stop_id":"317","stop_name":"CRRI","lat":28.551088,"lng":77.273998},{"stop_id":"318","stop_name":"Sukhdev Vihar Depot","lat":28.554827,"lng":77.271291},{"stop_id":"319","stop_name":"Kalkaji Xing","lat":28.55795,"lng":77.26895},{"stop_id":"320","stop_name":"Ishwar Nagar","lat":28.561592,"lng":77.266287},{"stop_id":"322","stop_name":"Ashram Chowk","lat":28.57045,"lng":77.259788},{"stop_id":"323","stop_name":"Ashram (Hari Nagar)","lat":28.574277,"lng":77.256865},{"stop_id":"324","stop_name":"Bhogal","lat":28.582917,"lng":77.251209},{"stop_id":"325","stop_name":"Bhogal (Jungpura)","lat":28.584692,"lng":77.249659},{"stop_id":"326","stop_name":"Nizamuddin Extension","lat":28.589269,"lng":77.246339},{"stop_id":"327","stop_name":"Police Station Nizamuddin (Dargah)","lat":28.591349,"lng":77.244916},{"stop_id":"328","stop_name":"Ishpat Bhawan","lat":28.5924,"lng":77.23675},{"stop_id":"329","stop_name":"JLN Stadium (Sunehripulla Depot)","lat":28.591833,"lng":77.232383},{"stop_id":"330","stop_name":"Lodhi Colony 18-Block","lat":28.586733,"lng":77.22425},{"stop_id":"331","stop_name":"Lodhi Colony","lat":28.584817,"lng":77.224533},{"stop_id":"332","stop_name":"Kushak Nallah Depot","lat":28.580036,"lng":77.225132},{"stop_id":"334","stop_name":"Madanpur Khadar Crossing","lat":28.529703,"lng":77.287907},{"stop_id":"335","stop_name":"Sarita Vihar","lat":28.532092,"lng":77.286936},{"stop_id":"336","stop_name":"Nehru Nagar","lat":28.568283,"lng":77.253917},{"stop_id":"337","stop_name":"Lajpat Nagar Ring Road","lat":28.565391,"lng":77.248511},{"stop_id":"338","stop_name":"Gupta Market","lat":28.564833,"lng":77.241433},{"stop_id":"339","stop_name":"Gupta Market","lat":28.564823,"lng":77.239969},{"stop_id":"340","stop_name":"MCKR Hospital","lat":28.569135,"lng":77.235154},{"stop_id":"341","stop_name":"Defence Colony","lat":28.573,"lng":77.237367},{"stop_id":"342","stop_name":"Pant Nagar","lat":28.583917,"lng":77.240533},{"stop_id":"343","stop_name":"CGO Complex","lat":28.587033,"lng":77.2408},{"stop_id":"344","stop_name":"Amir Khusro Park / Oberoi Hotel","lat":28.596267,"lng":77.240433},{"stop_id":"345","stop_name":"Delhi Public School","lat":28.598783,"lng":77.2406},{"stop_id":"347","stop_name":"Zoo","lat":28.6084,"lng":77.23995},{"stop_id":"348","stop_name":"National Stadium","lat":28.611683,"lng":77.239967},{"stop_id":"349","stop_name":"ITPO Gate No. 3","lat":28.6155,"lng":77.24015},{"stop_id":"350","stop_name":"Pragati Maidan Gate No. 5","lat":28.618483,"lng":77.240183},{"stop_id":"351","stop_name":"Supreme Court","lat":28.622877,"lng":77.240388},{"stop_id":"352","stop_name":"Pragati Maidan Metro Station","lat":28.623433,"lng":77.240567},{"stop_id":"353","stop_name":"ITO (Agarwal Chowk)","lat":28.629065,"lng":77.241192},{"stop_id":"354","stop_name":"Express Building","lat":28.633864,"lng":77.240804},{"stop_id":"355","stop_name":"Delhi Gate / Ambedkar Stadium","lat":28.638817,"lng":77.241013},{"stop_id":"356","stop_name":"Darya Ganj Golcha Cinema","lat":28.64635,"lng":77.240226},{"stop_id":"357","stop_name":"Subhash Park","lat":28.649272,"lng":77.239311},{"stop_id":"358","stop_name":"Jama Masjid","lat":28.651255,"lng":77.237958},{"stop_id":"359","stop_name":"Red Fort","lat":28.653939,"lng":77.236401},{"stop_id":"363","stop_name":"Jhul-Jhuli Check Post / Ghumanhera Crossing","lat":28.535283,"lng":76.909333},{"stop_id":"364","stop_name":"Malik Pur Village Crossing","lat":28.552333,"lng":76.907483},{"stop_id":"365","stop_name":"Ujwa Gaon","lat":28.5683384634491,"lng":76.9065230295013},{"stop_id":"366","stop_name":"Ujwa School","lat":28.5735106,"lng":76.9082469},{"stop_id":"368","stop_name":"Samaspur Khalsa","lat":28.5790789307376,"lng":76.9100964494088},{"stop_id":"370","stop_name":"Rawta Crossing (Dhansa Road)","lat":28.600403776461,"lng":76.9161106637266},{"stop_id":"371","stop_name":"Surehra Crossing","lat":28.60448,"lng":76.932397},{"stop_id":"372","stop_name":"Mitraon School","lat":28.607252,"lng":76.939754},{"stop_id":"374","stop_name":"Mitraon Crossing","lat":28.608343,"lng":76.951668},{"stop_id":"375","stop_name":"Indra Service Station","lat":28.608858,"lng":76.959974},{"stop_id":"376","stop_name":"Nanak Piyau","lat":28.609487,"lng":76.967851},{"stop_id":"377","stop_name":"Prem Nursary","lat":28.610354,"lng":76.971259},{"stop_id":"378","stop_name":"Khera More / Ghuman Hera Crossing","lat":28.6111300229137,"lng":76.9744597383946},{"stop_id":"379","stop_name":"Jharoda Crossing Jharoda Road","lat":28.6137657049756,"lng":76.9793626157992},{"stop_id":"380","stop_name":"NajafGarh Terminal","lat":28.6148311619155,"lng":76.9772491148408},{"stop_id":"381","stop_name":"Shalimar Bagh (Ring Road)","lat":28.703538,"lng":77.169078},{"stop_id":"382","stop_name":"Ashok Vihar Crossing","lat":28.701819,"lng":77.165532},{"stop_id":"383","stop_name":"Richi Rich","lat":28.70097,"lng":77.161821},{"stop_id":"384","stop_name":"Prem Bari Pul","lat":28.700065,"lng":77.158465},{"stop_id":"385","stop_name":"Punjab Kesari (Subhash Palace Depot)","lat":28.695994,"lng":77.155671},{"stop_id":"386","stop_name":"Wazirpur DTC Depot / Netaji Subhash Palace","lat":28.693861,"lng":77.150918},{"stop_id":"387","stop_name":"Pitampura ND Block","lat":28.69553,"lng":77.146025},{"stop_id":"388","stop_name":"Kohat Enclave Metro Station","lat":28.697168,"lng":77.142174},{"stop_id":"389","stop_name":"Vaishali  Enclave / Kapil Vihar","lat":28.699303,"lng":77.137619},{"stop_id":"390","stop_name":"JD Block Pitam Pura","lat":28.701454,"lng":77.134768},{"stop_id":"391","stop_name":"Pitampura Metro Station Madhuban Chowk","lat":28.702377,"lng":77.133476},{"stop_id":"392","stop_name":"Madhuban Chowk Outer Ring Road","lat":28.702886,"lng":77.130242},{"stop_id":"393","stop_name":"Saraswati  Vihar C Block","lat":28.700082,"lng":77.125333},{"stop_id":"394","stop_name":"Deepali Chowk","lat":28.69796,"lng":77.11962},{"stop_id":"395","stop_name":"Kali Mata Mandir","lat":28.697185,"lng":77.115505},{"stop_id":"396","stop_name":"Puspanjali Enclave","lat":28.696165,"lng":77.111793},{"stop_id":"397","stop_name":"Rohini Depot  3","lat":28.695388,"lng":77.109414},{"stop_id":"398","stop_name":"Mangolpur School","lat":28.694461,"lng":77.106694},{"stop_id":"399","stop_name":"Mangolpur Kalan Village","lat":28.695549,"lng":77.101135},{"stop_id":"400","stop_name":"Avantika Crossing","lat":28.69875,"lng":77.0964},{"stop_id":"401","stop_name":"Mangol Pur Khurd","lat":28.700005,"lng":77.094325},{"stop_id":"402","stop_name":"Mangolpuri Y Block","lat":28.702634,"lng":77.089647},{"stop_id":"403","stop_name":"Krishna Vihar","lat":28.704528,"lng":77.086895},{"stop_id":"404","stop_name":"Krishna Vihar","lat":28.709736,"lng":77.081042},{"stop_id":"405","stop_name":"Brahm Shakti Hospital","lat":28.7125001,"lng":77.0805},{"stop_id":"406","stop_name":"Pooth Kalan","lat":28.714257,"lng":77.076933},{"stop_id":"407","stop_name":"Rohini Sec-21","lat":28.7187,"lng":77.0696},{"stop_id":"408","stop_name":"Begumpur","lat":28.7217,"lng":77.06495},{"stop_id":"410","stop_name":"Karala Pathsala Jain Mandir","lat":28.726356,"lng":77.053345},{"stop_id":"411","stop_name":"Sukhbeer Nagar","lat":28.727533,"lng":77.04895},{"stop_id":"412","stop_name":"Rama Vihar","lat":28.728583,"lng":77.045817},{"stop_id":"413","stop_name":"Karala School","lat":28.730681,"lng":77.039664},{"stop_id":"414","stop_name":"Karala Village","lat":28.7315,"lng":77.037},{"stop_id":"415","stop_name":"Karala Crossing","lat":28.731601,"lng":77.031627},{"stop_id":"416","stop_name":"Desu Office","lat":28.7325,"lng":77.0284},{"stop_id":"417","stop_name":"Shiv Vihar Bheem Chowk","lat":28.7333,"lng":77.025},{"stop_id":"418","stop_name":"Radha Swami Satsang","lat":28.73384,"lng":77.0208},{"stop_id":"419","stop_name":"Shivam Plywood","lat":28.7352,"lng":77.0125833333333},{"stop_id":"420","stop_name":"Kanjhawla Chowk","lat":28.737911,"lng":77.00692},{"stop_id":"421","stop_name":"Nirmal Hospital","lat":28.738428,"lng":77.004399},{"stop_id":"422","stop_name":"Ladpur Village","lat":28.73949,"lng":76.997517},{"stop_id":"423","stop_name":"Rajendra Lakra Public School","lat":28.740338,"lng":76.994313},{"stop_id":"424","stop_name":"Sant Vivekanand School","lat":28.74225,"lng":76.9865},{"stop_id":"425","stop_name":"Vriddha Ashram","lat":28.744467,"lng":76.980917},{"stop_id":"426","stop_name":"Jonti Crossing","lat":28.74615,"lng":76.978217},{"stop_id":"427","stop_name":"Jonti Village","lat":28.7531452409393,"lng":76.972067834944},{"stop_id":"428","stop_name":"Tatesar Village","lat":28.755872,"lng":76.968475},{"stop_id":"429","stop_name":"Balaji Enclave","lat":28.767498,"lng":76.96456},{"stop_id":"430","stop_name":"Punjab Khor Village","lat":28.773006,"lng":76.962094},{"stop_id":"431","stop_name":"Punjab Khor Village","lat":28.7779,"lng":76.9614},{"stop_id":"432","stop_name":"Divya Dham Ashram","lat":28.788119,"lng":76.962441},{"stop_id":"433","stop_name":"Jatt Khor Crossing","lat":28.79069,"lng":76.962473},{"stop_id":"434","stop_name":"Qutub Garh Enclave","lat":28.7977,"lng":76.960533},{"stop_id":"435","stop_name":"Qutub Garh Village (T)","lat":28.801274,"lng":76.962031},{"stop_id":"436","stop_name":"Katewara Crossing","lat":28.8061001,"lng":76.9658501},{"stop_id":"437","stop_name":"Katewara Colony","lat":28.805956,"lng":76.969867},{"stop_id":"439","stop_name":"Rajghat Depot","lat":28.643931,"lng":77.252592},{"stop_id":"440","stop_name":"Rajghat Gandhi Darshan","lat":28.6389,"lng":77.2502},{"stop_id":"441","stop_name":"Gandhi Darshan","lat":28.636983,"lng":77.247267},{"stop_id":"442","stop_name":"Indira Gandhi Stadium","lat":28.6336,"lng":77.2469},{"stop_id":"443","stop_name":"IP Power House (ITO Ring Road)","lat":28.624078,"lng":77.247687},{"stop_id":"444","stop_name":"Indraprastha Depot","lat":28.6195,"lng":77.249},{"stop_id":"445","stop_name":"Pragati Power Station","lat":28.616,"lng":77.2501},{"stop_id":"446","stop_name":"Railway Road Bridge","lat":28.610753,"lng":77.2517899},{"stop_id":"447","stop_name":"Nizamuddin Road Bridge","lat":28.603408,"lng":77.254218},{"stop_id":"448","stop_name":"ISBT Sarai Kale Khan","lat":28.5908681,"lng":77.2581704},{"stop_id":"449","stop_name":"Kushak Nallah Depot","lat":28.580073,"lng":77.224903},{"stop_id":"450","stop_name":"Lodhi Colony","lat":28.5847,"lng":77.2247},{"stop_id":"451","stop_name":"Central School Lodhi Road","lat":28.584967,"lng":77.228233},{"stop_id":"452","stop_name":"J L Nehru Stadium","lat":28.5841,"lng":77.2301},{"stop_id":"453","stop_name":"Sewa Nagar Flyover","lat":28.57875,"lng":77.229533},{"stop_id":"454","stop_name":"Defence Colony (Homyopathic College)","lat":28.571983,"lng":77.227669},{"stop_id":"455","stop_name":"PT College Kotla","lat":28.569817,"lng":77.22655},{"stop_id":"456","stop_name":"Andrews Ganj","lat":28.565987,"lng":77.230567},{"stop_id":"457","stop_name":"Gupta Market","lat":28.565133,"lng":77.239733},{"stop_id":"458","stop_name":"Lajpat Nagar (Ring Road)","lat":28.565202,"lng":77.242598},{"stop_id":"459","stop_name":"Lajpat Nagar Ring Road","lat":28.565781,"lng":77.249098},{"stop_id":"460","stop_name":"Lajpat Nagar Crossing","lat":28.564183,"lng":77.250367},{"stop_id":"461","stop_name":"Garhi Village","lat":28.5624,"lng":77.251417},{"stop_id":"462","stop_name":"B-Block East of Kailash","lat":28.562167,"lng":77.255617},{"stop_id":"463","stop_name":"C-Block East of Kailash","lat":28.56215,"lng":77.2582},{"stop_id":"464","stop_name":"SNPD","lat":28.5612422,"lng":77.2601598},{"stop_id":"465","stop_name":"Laghu Udyog Sansthan (ModiMill)","lat":28.5565,"lng":77.2648},{"stop_id":"466","stop_name":"NSIC","lat":28.553683,"lng":77.265133},{"stop_id":"467","stop_name":"Kalkaji Mandir","lat":28.55205,"lng":77.2645},{"stop_id":"468","stop_name":"Kalkaji Mandir (MaaAnandmayeeMarg)","lat":28.5479,"lng":77.263},{"stop_id":"469","stop_name":"Govind Puri Metro Station","lat":28.545217,"lng":77.2641},{"stop_id":"470","stop_name":"Kalkaji Depot","lat":28.5375,"lng":77.2674},{"stop_id":"471","stop_name":"C-Lal Chowk","lat":28.534033,"lng":77.268667},{"stop_id":"472","stop_name":"CRPF Camp / Crown Plaza","lat":28.527867,"lng":77.272383},{"stop_id":"473","stop_name":"Bank","lat":28.5261,"lng":77.2736},{"stop_id":"474","stop_name":"Okhla Ph-I","lat":28.5203,"lng":77.2777},{"stop_id":"475","stop_name":"ESI Hospital","lat":28.51425,"lng":77.281333},{"stop_id":"476","stop_name":"Tehkhand Depot DTC","lat":28.510917,"lng":77.281167},{"stop_id":"477","stop_name":"Prem Nagar","lat":28.5044,"lng":77.2793},{"stop_id":"478","stop_name":"Lal Kuan","lat":28.5026,"lng":77.284517},{"stop_id":"479","stop_name":"Surajkund Crossing","lat":28.5017,"lng":77.291},{"stop_id":"480","stop_name":"Prehlad Pur","lat":28.5,"lng":77.294633},{"stop_id":"481","stop_name":"Badarpur M B Road","lat":28.4995,"lng":77.299267},{"stop_id":"482","stop_name":"Jaitpur Crossing","lat":28.498104,"lng":77.302191},{"stop_id":"484","stop_name":"Dichau Kalan Depot","lat":28.628968,"lng":76.997542},{"stop_id":"485","stop_name":"Nirmal Vihar","lat":28.625293,"lng":76.992481},{"stop_id":"486","stop_name":"Udaseen Ashram","lat":28.621564,"lng":76.988064},{"stop_id":"487","stop_name":"Dichau Chowk","lat":28.616516,"lng":76.98382},{"stop_id":"488","stop_name":"NajafGarh Delhi Gate","lat":28.611746,"lng":76.985721},{"stop_id":"489","stop_name":"Chawla Stand Najafgarh","lat":28.607056,"lng":76.986005},{"stop_id":"490","stop_name":"BDO Office","lat":28.600879,"lng":76.988758},{"stop_id":"491","stop_name":"Durga Vihar","lat":28.59664,"lng":76.99046},{"stop_id":"492","stop_name":"Deenpur Village","lat":28.594055,"lng":76.991774},{"stop_id":"493","stop_name":"Goela Dairy Crossing","lat":28.591726,"lng":76.992969},{"stop_id":"494","stop_name":"Shyam Vihar","lat":28.591481,"lng":77.000564},{"stop_id":"495","stop_name":"Goyla Village","lat":28.587801,"lng":77.008562},{"stop_id":"496","stop_name":"Taj Pur More","lat":28.583311,"lng":77.011776},{"stop_id":"497","stop_name":"St Thomas School Goyla Vihar","lat":28.581902,"lng":77.015056},{"stop_id":"498","stop_name":"Nehru Bus Stand Goyla Dairy","lat":28.580514,"lng":77.019268},{"stop_id":"499","stop_name":"Goyla Dairy (Qutub Vihar)","lat":28.5798547497433,"lng":77.021953036937},{"stop_id":"500","stop_name":"Jhankar Crossing","lat":28.579252,"lng":77.024293},{"stop_id":"501","stop_name":"Qutub Vihar Phase-I Kikar Stand","lat":28.5784,"lng":77.029767},{"stop_id":"502","stop_name":"Police Post","lat":28.577431,"lng":77.035333},{"stop_id":"503","stop_name":"Amrohi More","lat":28.574817,"lng":77.0513},{"stop_id":"504","stop_name":"Dwarka Sec-19 Modern School","lat":28.578167,"lng":77.0542},{"stop_id":"505","stop_name":"NHAI Building/ Dwarka Sec-10 Metro Station","lat":28.579068,"lng":77.059118},{"stop_id":"506","stop_name":"President Cabinet Apartments","lat":28.582753,"lng":77.062279},{"stop_id":"507","stop_name":"Princess Park/ Airforce Noval Office Enclave","lat":28.587688,"lng":77.066452},{"stop_id":"508","stop_name":"Dwarka Sec-6/7","lat":28.59126,"lng":77.069535},{"stop_id":"509","stop_name":"Dwarka Sec-6 Telephone Exchange","lat":28.593228,"lng":77.070994},{"stop_id":"510","stop_name":"Maharaja Agrasen Hospital Dwarka","lat":28.593101,"lng":77.079538},{"stop_id":"511","stop_name":"Health Centre","lat":28.592015,"lng":77.081258},{"stop_id":"512","stop_name":"Mangla Puri Terminal","lat":28.590099,"lng":77.086907},{"stop_id":"513","stop_name":"Shivaji Stadium Terminal","lat":28.632763,"lng":77.215806},{"stop_id":"514","stop_name":"Shaheed Bhagat Singh Marg","lat":28.633293,"lng":77.212365},{"stop_id":"515","stop_name":"Shaheed Bhagat Singh Marg","lat":28.633562,"lng":77.209301},{"stop_id":"516","stop_name":"Gole Market","lat":28.6347,"lng":77.2037},{"stop_id":"517","stop_name":"PS Mandir Marg","lat":28.638783,"lng":77.20345},{"stop_id":"518","stop_name":"Balmiki Mandir","lat":28.639867,"lng":77.2043},{"stop_id":"519","stop_name":"Panchkuian Road Banwai Lal Hospital","lat":28.6417,"lng":77.2042},{"stop_id":"520","stop_name":"Meghdoot Bhawan","lat":28.643667,"lng":77.201033},{"stop_id":"521","stop_name":"Pusa Road Petrol Pump Sadhu Vaswani Marg","lat":28.644583,"lng":77.192833},{"stop_id":"522","stop_name":"Karol Bagh Metro Station","lat":28.643911,"lng":77.188747},{"stop_id":"524","stop_name":"East Patel Nagar","lat":28.6424110602643,"lng":77.1734091778132},{"stop_id":"525","stop_name":"South Patel Nagar (Metro Station)","lat":28.6453945693725,"lng":77.1684196058229},{"stop_id":"526","stop_name":"West Patel Nagar","lat":28.647504,"lng":77.164974},{"stop_id":"527","stop_name":"Shadipur DTC Colony Metro Station","lat":28.6513447000214,"lng":77.1585098882541},{"stop_id":"528","stop_name":"Shadipur Depot","lat":28.653117,"lng":77.1555},{"stop_id":"529","stop_name":"Moti Nagar Industrial Area","lat":28.657317,"lng":77.1485},{"stop_id":"530","stop_name":"Karampura Terminal","lat":28.661,"lng":77.142383},{"stop_id":"531","stop_name":"New Moti Nagar B Block","lat":28.6635,"lng":77.1406},{"stop_id":"532","stop_name":"Punjabi Bagh Terminal","lat":28.669318,"lng":77.137519},{"stop_id":"533","stop_name":"Shakkur Pur Crossing / Britannia","lat":28.684228,"lng":77.147619},{"stop_id":"534","stop_name":"Telephone Exchange","lat":28.686452,"lng":77.150998},{"stop_id":"535","stop_name":"Netaji Subhas Place/Wazirpur Depot","lat":28.691698,"lng":77.153496},{"stop_id":"536","stop_name":"Guru Govind Singh College","lat":28.6979,"lng":77.151475},{"stop_id":"537","stop_name":"TV Tower (Power House)","lat":28.699707,"lng":77.151202},{"stop_id":"538","stop_name":"DAV School","lat":28.699912,"lng":77.14428},{"stop_id":"539","stop_name":"Pitam Pura KD Block","lat":28.7002,"lng":77.1411},{"stop_id":"540","stop_name":"Pittampura AP-Block","lat":28.703277,"lng":77.139304},{"stop_id":"541","stop_name":"Pitampura CD-Block","lat":28.705955,"lng":77.138462},{"stop_id":"542","stop_name":"Pitampura Power House","lat":28.707765,"lng":77.134558},{"stop_id":"543","stop_name":"Madhuban Chowk (Outer Ring Road)","lat":28.704931,"lng":77.132221},{"stop_id":"544","stop_name":"Madhuvan Chowk","lat":28.704675,"lng":77.130151},{"stop_id":"545","stop_name":"Sai Baba Chowk Rohini Sec 7","lat":28.707658,"lng":77.123974},{"stop_id":"546","stop_name":"Sai Baba Chowk Rohini","lat":28.70906,"lng":77.123648},{"stop_id":"547","stop_name":"Rohini Sec 7 and 8","lat":28.711578,"lng":77.120316},{"stop_id":"548","stop_name":"Rohini West Metro Station","lat":28.715,"lng":77.115},{"stop_id":"549","stop_name":"Rohini Depot 1 Sec 6 (Ambedkar Hospital)","lat":28.7158,"lng":77.113983},{"stop_id":"550","stop_name":"Rajeev Gandhi Cancer Hospital","lat":28.71725,"lng":77.111833},{"stop_id":"551","stop_name":"Rithala Metro Station","lat":28.71964,"lng":77.108529},{"stop_id":"552","stop_name":"Pal Colony","lat":28.723411,"lng":77.103745},{"stop_id":"553","stop_name":"Rithala Village","lat":28.725811,"lng":77.100279},{"stop_id":"554","stop_name":"Sec-24 Rohini Main Road","lat":28.727139,"lng":77.098373},{"stop_id":"555","stop_name":"Dera Satguru Sewaram Sahai Sec 24/25 Crossing","lat":28.72976,"lng":77.094556},{"stop_id":"557","stop_name":"Hanuman Mandir Rohini Sec 24","lat":28.722883,"lng":77.08773},{"stop_id":"558","stop_name":"Rohini Sec 23 (Green Hill Aptt.)","lat":28.7192220505417,"lng":77.0846028893605},{"stop_id":"559","stop_name":"Ghuman Hera Village","lat":28.532153,"lng":76.922323},{"stop_id":"560","stop_name":"Ghuman Hera More / Shikarpur Crossing","lat":28.536905,"lng":76.922167},{"stop_id":"561","stop_name":"Dewta Wala mandir","lat":28.548976,"lng":76.930686},{"stop_id":"562","stop_name":"Hasanpur Village","lat":28.5568222695004,"lng":76.9368548833972},{"stop_id":"563","stop_name":"KharKhari Rondh","lat":28.56176,"lng":76.941887},{"stop_id":"564","stop_name":"Pandwala Crossing","lat":28.574027,"lng":76.952356},{"stop_id":"565","stop_name":"KharKhari Jatmal / Surhera Crossing","lat":28.582168,"lng":76.957902},{"stop_id":"566","stop_name":"KharKhari Nahar / Khera Dabur","lat":28.58704,"lng":76.959128},{"stop_id":"567","stop_name":"Khera Village 2","lat":28.596312,"lng":76.964794},{"stop_id":"568","stop_name":"Krishna Nagar / Gopal Nagar","lat":28.606791,"lng":76.972726},{"stop_id":"569","stop_name":"Jhatikra Crossing Pandwala Road","lat":28.5846382853658,"lng":76.9950528230485},{"stop_id":"570","stop_name":"Rewla Khanpur Crossing","lat":28.572355,"lng":76.980956},{"stop_id":"571","stop_name":"Purani Basti Rewla Khanpur","lat":28.569584,"lng":76.977685},{"stop_id":"572","stop_name":"Rewla Khanpur Depot","lat":28.5686740652351,"lng":76.9767144144057},{"stop_id":"573","stop_name":"Tikri Khurd","lat":28.835983,"lng":77.123838},{"stop_id":"574","stop_name":"Tikri Khurd Crossing / AMPC","lat":28.836177,"lng":77.12839},{"stop_id":"575","stop_name":"Tikri Khurd Crossing / AMPC","lat":28.835604,"lng":77.128935},{"stop_id":"576","stop_name":"Khampur Village","lat":28.824476,"lng":77.132311},{"stop_id":"577","stop_name":"Bakauli Village (GT Road)","lat":28.810288,"lng":77.137092},{"stop_id":"578","stop_name":"Shani Dham Mandir GT Road","lat":28.80415,"lng":77.14274},{"stop_id":"579","stop_name":"Pwd Office","lat":28.8012,"lng":77.138967},{"stop_id":"580","stop_name":"Alipur Village GT Road","lat":28.796617,"lng":77.1396},{"stop_id":"581","stop_name":"Jind Pur Crossing","lat":28.793233,"lng":77.14415},{"stop_id":"582","stop_name":"Sai Mandir","lat":28.78865,"lng":77.141467},{"stop_id":"583","stop_name":"Budhpur GT Road","lat":28.782107,"lng":77.141601},{"stop_id":"584","stop_name":"Jain Mandir","lat":28.77715,"lng":77.142633},{"stop_id":"585","stop_name":"Nangli Poona (GT Road)","lat":28.774167,"lng":77.143267},{"stop_id":"586","stop_name":"Gurudwara Siraspur GT Road","lat":28.764956,"lng":77.146126},{"stop_id":"587","stop_name":"Kapashera Border","lat":28.522481,"lng":77.082442},{"stop_id":"588","stop_name":"Kapashera Village","lat":28.524517,"lng":77.0837},{"stop_id":"589","stop_name":"Kapashera Crossing","lat":28.531234,"lng":77.088154},{"stop_id":"590","stop_name":"Samalkha Village","lat":28.534492,"lng":77.090371},{"stop_id":"591","stop_name":"Samalkha Crossing","lat":28.538205,"lng":77.091434},{"stop_id":"592","stop_name":"Puspanjali G Block","lat":28.5422626711678,"lng":77.0735459241414},{"stop_id":"593","stop_name":"Dwarka Road","lat":28.544217,"lng":77.065083},{"stop_id":"594","stop_name":"Bharthal Under Pass","lat":28.547567,"lng":77.057117},{"stop_id":"595","stop_name":"Dwarka Sec-21 Metro Station","lat":28.5519186,"lng":77.0566312},{"stop_id":"596","stop_name":"Dwarka Sec-21 Crossing","lat":28.55411,"lng":77.05858},{"stop_id":"597","stop_name":"Dwarka Sec 22 Vivanta Hotel","lat":28.558065,"lng":77.061889},{"stop_id":"598","stop_name":"Dwarka Sec-20/21 Crossing","lat":28.5639249,"lng":77.0627421},{"stop_id":"599","stop_name":"Dwarka Sec-8 Metro Station","lat":28.56622,"lng":77.06691},{"stop_id":"600","stop_name":"Shahbad Mohammad Pur School","lat":28.56294,"lng":77.07074},{"stop_id":"601","stop_name":"Shahbad Mohammad Pur Village","lat":28.559648,"lng":77.071398},{"stop_id":"602","stop_name":"Shahbad Mohammad Pur School","lat":28.56278,"lng":77.07072},{"stop_id":"603","stop_name":"Dwarka Sec-8 Metro Station","lat":28.5675435,"lng":77.0666171},{"stop_id":"604","stop_name":"Dwarka Sec8","lat":28.56852,"lng":77.06788},{"stop_id":"605","stop_name":"Bagdola Village","lat":28.57252,"lng":77.06916},{"stop_id":"606","stop_name":"Dwarka Sec8 DTC Depot","lat":28.5758,"lng":77.07134},{"stop_id":"607","stop_name":"National Malariya Research Centre (Dwarka)","lat":28.5765,"lng":77.07594},{"stop_id":"608","stop_name":"Dada Dev Mandir","lat":28.57818,"lng":77.07708},{"stop_id":"609","stop_name":"National Malariya Research Centre (Dwarka)","lat":28.57876,"lng":77.07616},{"stop_id":"610","stop_name":"Royal Residency (Dwarka)","lat":28.5815,"lng":77.0703},{"stop_id":"611","stop_name":"Munirka Flats (Dwarka)","lat":28.58367,"lng":77.06701},{"stop_id":"612","stop_name":"Dwarka Sec 1","lat":28.594499,"lng":77.073519},{"stop_id":"613","stop_name":"Sulabh International Centre","lat":28.59687,"lng":77.080944},{"stop_id":"614","stop_name":"Mahaveer Enclave III","lat":28.60084,"lng":77.08199},{"stop_id":"615","stop_name":"Dashrath Puri","lat":28.60353,"lng":77.08266},{"stop_id":"616","stop_name":"Vijay Enclave (Palam-Dabri Road)","lat":28.60654,"lng":77.08111},{"stop_id":"617","stop_name":"Dabri Village","lat":28.608043,"lng":77.081954},{"stop_id":"618","stop_name":"Dabri Crossing Dwarka Road","lat":28.6128332543193,"lng":77.0860911074767},{"stop_id":"619","stop_name":"C2D Janakpuri","lat":28.61446,"lng":77.086985},{"stop_id":"620","stop_name":"C4E Janakpuri","lat":28.616659,"lng":77.087976},{"stop_id":"621","stop_name":"C2B Janak Puri","lat":28.621222,"lng":77.088818},{"stop_id":"622","stop_name":"Bharti College","lat":28.62235,"lng":77.09365},{"stop_id":"623","stop_name":"Virender Nagar / Dilli Haat","lat":28.6232,"lng":77.09615},{"stop_id":"624","stop_name":"Hari Nagar Depot","lat":28.62541,"lng":77.10109},{"stop_id":"625","stop_name":"G Block Hari Nagar","lat":28.627917,"lng":77.100067},{"stop_id":"626","stop_name":"Fateh Nagar","lat":28.631133,"lng":77.098567},{"stop_id":"627","stop_name":"Tilak Nagar Jail Road","lat":28.635737,"lng":77.096692},{"stop_id":"628","stop_name":"Tilak Nagar Crossing (Najafgarh Road)","lat":28.635322,"lng":77.092959},{"stop_id":"629","stop_name":"Janak Puri Check Post","lat":28.633858754923,"lng":77.0888298522768},{"stop_id":"630","stop_name":"B2A Janakpuri","lat":28.632306,"lng":77.084585},{"stop_id":"631","stop_name":"Janak Puri District Centre","lat":28.630488,"lng":77.080047},{"stop_id":"632","stop_name":"Dholi Piao","lat":28.629119,"lng":77.076482},{"stop_id":"633","stop_name":"Vikaspuri Crossing","lat":28.626449,"lng":77.06969},{"stop_id":"634","stop_name":"Uttam Nagar Terminal","lat":28.624597,"lng":77.06498},{"stop_id":"635","stop_name":"Mangla Puri Terminal","lat":28.5899833333333,"lng":77.0870166666667},{"stop_id":"636","stop_name":"Health Centre","lat":28.591,"lng":77.0814},{"stop_id":"637","stop_name":"Dwarka Crossing / Maharaja Agrasen Hospital","lat":28.592833,"lng":77.079486},{"stop_id":"638","stop_name":"Dwarka Sec 1","lat":28.594283,"lng":77.073867},{"stop_id":"639","stop_name":"J M International School","lat":28.595421,"lng":77.070134},{"stop_id":"640","stop_name":"Dwarka Sec 2-6","lat":28.597335,"lng":77.064944},{"stop_id":"641","stop_name":"Madhu Vihar","lat":28.599779,"lng":77.061168},{"stop_id":"642","stop_name":"Rajapuri","lat":28.6038,"lng":77.0551},{"stop_id":"643","stop_name":"Matiyala Xing","lat":28.605032,"lng":77.051737},{"stop_id":"644","stop_name":"DPS Matiyala","lat":28.604518,"lng":77.046323},{"stop_id":"645","stop_name":"Dwarka Sec 3-4","lat":28.602648,"lng":77.043175},{"stop_id":"646","stop_name":"Dwarka Sec 13-3 Xing","lat":28.602551,"lng":77.040932},{"stop_id":"647","stop_name":"MRV School Sec 13 Dwarka","lat":28.603988,"lng":77.038876},{"stop_id":"648","stop_name":"Dwarka Sec 13","lat":28.605684,"lng":77.036274},{"stop_id":"649","stop_name":"NSIT (Netaji Subhas Institute) / Sulahkul Mandir","lat":28.607416,"lng":77.035099},{"stop_id":"650","stop_name":"Suraj Vihar","lat":28.610723,"lng":77.034031},{"stop_id":"651","stop_name":"Kakrola More","lat":28.6189259761464,"lng":77.0295846256512},{"stop_id":"652","stop_name":"Kakrola Bridge","lat":28.619809,"lng":77.024876},{"stop_id":"653","stop_name":"Nangli Dairy","lat":28.6197008886414,"lng":77.0176653844578},{"stop_id":"654","stop_name":"Chhathh Ghat Park","lat":28.618803,"lng":77.015219},{"stop_id":"655","stop_name":"Arjun Park","lat":28.618083,"lng":77.013083},{"stop_id":"656","stop_name":"Nangli Sakrawati Crossing","lat":28.6162575580097,"lng":77.0080117622372},{"stop_id":"657","stop_name":"Nangli Sakrawati","lat":28.6146300895119,"lng":77.0039039906278},{"stop_id":"658","stop_name":"Sai Baba Mandir","lat":28.613536,"lng":76.999497},{"stop_id":"659","stop_name":"Power House NajafGarh","lat":28.612929,"lng":76.995552},{"stop_id":"660","stop_name":"Tuda Mandi","lat":28.6125090959708,"lng":76.9923600178753},{"stop_id":"661","stop_name":"Nizamuddin Railway Station","lat":28.586388,"lng":77.253259},{"stop_id":"662","stop_name":"Rajdoot Hotel","lat":28.5825,"lng":77.2527},{"stop_id":"663","stop_name":"Ashram (Hari Nagar)","lat":28.57449,"lng":77.256841},{"stop_id":"664","stop_name":"Sri Niwaspuri / PG DAV College Lajpat Nagar","lat":28.56675,"lng":77.253117},{"stop_id":"665","stop_name":"ESI Hospital Okhla","lat":28.51529,"lng":77.281062},{"stop_id":"666","stop_name":"Central Work Shop II","lat":28.5164,"lng":77.2835},{"stop_id":"667","stop_name":"Okhla Depot IV CWS II","lat":28.5187039,"lng":77.2851174},{"stop_id":"668","stop_name":"ISBT Kashmere Gate Terminal","lat":28.66696,"lng":77.227456},{"stop_id":"669","stop_name":"Tees Hazari Court","lat":28.666662,"lng":77.21926},{"stop_id":"670","stop_name":"St Stephen Hospital","lat":28.6671,"lng":77.2149},{"stop_id":"671","stop_name":"Ice Factory (Rani Jhansi Road)","lat":28.666336,"lng":77.208872},{"stop_id":"672","stop_name":"Roshnara Road","lat":28.669035,"lng":77.204663},{"stop_id":"673","stop_name":"Roshnara Bagh","lat":28.6717,"lng":77.2007},{"stop_id":"674","stop_name":"Clock Tower","lat":28.6774,"lng":77.201633},{"stop_id":"675","stop_name":"Shakti Nagar","lat":28.6804,"lng":77.1993},{"stop_id":"676","stop_name":"Shakti Nagar Nangia Park","lat":28.679846,"lng":77.195746},{"stop_id":"677","stop_name":"Chowki No 2 / Gulabi Bagh Crossing","lat":28.677233,"lng":77.188967},{"stop_id":"678","stop_name":"Gulabi Bagh","lat":28.674998,"lng":77.188525},{"stop_id":"679","stop_name":"Shastri Nagar A Block","lat":28.672401,"lng":77.186038},{"stop_id":"680","stop_name":"Subhadra Colony","lat":28.671105,"lng":77.184219},{"stop_id":"681","stop_name":"Shastri Nagar Metro Station","lat":28.669997,"lng":77.181336},{"stop_id":"682","stop_name":"Shastri Nagar E Block","lat":28.6711,"lng":77.17605},{"stop_id":"683","stop_name":"Shastri Nagar Shiv Mandir","lat":28.6716,"lng":77.173},{"stop_id":"684","stop_name":"Inderlok Metro Station","lat":28.673633,"lng":77.168983},{"stop_id":"685","stop_name":"Kanhaiya Nagar","lat":28.680933,"lng":77.165433},{"stop_id":"686","stop_name":"B3 Keshav Puram","lat":28.6861,"lng":77.1629},{"stop_id":"687","stop_name":"B-4 Keshav Puram","lat":28.687583,"lng":77.162267},{"stop_id":"689","stop_name":"Mangol Pur School (Kanjhawla Road)","lat":28.694632,"lng":77.105225},{"stop_id":"690","stop_name":"Avantika Xing","lat":28.698239,"lng":77.097085},{"stop_id":"692","stop_name":"Rohini Sec 20/21 More","lat":28.7155,"lng":77.0743},{"stop_id":"693","stop_name":"Satyapuram Jharoda","lat":28.665305,"lng":76.943439},{"stop_id":"694","stop_name":"Jharoda Nala Crossing","lat":28.6586,"lng":76.9479},{"stop_id":"695","stop_name":"Jharoda Kalan","lat":28.655083,"lng":76.950083},{"stop_id":"696","stop_name":"Jharoda Village","lat":28.65085,"lng":76.9531},{"stop_id":"697","stop_name":"S.S. Kanya Vidhyalaya","lat":28.646688,"lng":76.956119},{"stop_id":"698","stop_name":"PTS Jharoda","lat":28.642863,"lng":76.958365},{"stop_id":"699","stop_name":"CRPF Jharoda","lat":28.638805,"lng":76.960707},{"stop_id":"700","stop_name":"Sainik Enclave Jharoda","lat":28.633583,"lng":76.963783},{"stop_id":"701","stop_name":"Saraswati Kunj Jharoda","lat":28.63045,"lng":76.965683},{"stop_id":"702","stop_name":"Naveen Palace","lat":28.627867,"lng":76.967333},{"stop_id":"703","stop_name":"Baba Haridass Nagar","lat":28.623817,"lng":76.970483},{"stop_id":"704","stop_name":"New Anaj Mandi","lat":28.619058,"lng":76.974408},{"stop_id":"705","stop_name":"Surakh Pur Crossing","lat":28.6155,"lng":76.976417},{"stop_id":"706","stop_name":"Uttam Nagar","lat":28.626011,"lng":77.068195},{"stop_id":"707","stop_name":"A-3 Janak Puri","lat":28.619633,"lng":77.079183},{"stop_id":"708","stop_name":"C-2 Janakpuri","lat":28.6219,"lng":77.0842},{"stop_id":"709","stop_name":"Bharti College / C2B Janak Puri","lat":28.621752,"lng":77.092199},{"stop_id":"710","stop_name":"C4E Janakpuri","lat":28.617217,"lng":77.088345},{"stop_id":"711","stop_name":"Central Market C3 Janakpuri","lat":28.615417,"lng":77.092583},{"stop_id":"712","stop_name":"C-4H Janakpuri","lat":28.616333,"lng":77.09525},{"stop_id":"713","stop_name":"Janakpuri C-5A","lat":28.6148,"lng":77.0977},{"stop_id":"714","stop_name":"Desu Colony Janakpuri","lat":28.6109508,"lng":77.0989138},{"stop_id":"715","stop_name":"Zunk Market","lat":28.6182233,"lng":77.1121149},{"stop_id":"716","stop_name":"Gulab House","lat":28.622267,"lng":77.1171},{"stop_id":"717","stop_name":"Bobby Soap","lat":28.62395,"lng":77.1186},{"stop_id":"718","stop_name":"PS Mayapuri","lat":28.625367,"lng":77.11975},{"stop_id":"719","stop_name":"Metal Forging","lat":28.629,"lng":77.122817},{"stop_id":"720","stop_name":"Government Press","lat":28.634617,"lng":77.127633},{"stop_id":"721","stop_name":"Mayapuri Depot","lat":28.63685,"lng":77.12835},{"stop_id":"722","stop_name":"Naraina Vihar / Indra Market","lat":28.626883,"lng":77.135333},{"stop_id":"723","stop_name":"Payal Cinema","lat":28.6314,"lng":77.1384},{"stop_id":"724","stop_name":"Loha Mandi","lat":28.641383,"lng":77.145217},{"stop_id":"725","stop_name":"Bentax","lat":28.644717,"lng":77.147667},{"stop_id":"726","stop_name":"Naraina Depot","lat":28.64905,"lng":77.1513},{"stop_id":"727","stop_name":"Pandav Nagar","lat":28.650051,"lng":77.153678},{"stop_id":"728","stop_name":"Shadipur Colony","lat":28.6516,"lng":77.1561},{"stop_id":"729","stop_name":"Shadipur Metro Station","lat":28.6515,"lng":77.1587},{"stop_id":"730","stop_name":"West Patel Nagar","lat":28.64795,"lng":77.164783},{"stop_id":"731","stop_name":"South Patel Nagar (Metro Station)","lat":28.6454,"lng":77.1689},{"stop_id":"732","stop_name":"East Patel Nagar","lat":28.642967,"lng":77.17315},{"stop_id":"733","stop_name":"Rajendra Place","lat":28.6425,"lng":77.1773},{"stop_id":"734","stop_name":"Telephone Exchange Karol Bagh","lat":28.64315,"lng":77.181917},{"stop_id":"735","stop_name":"Karol Bagh Metro Station","lat":28.6442,"lng":77.189},{"stop_id":"736","stop_name":"Pusa Road Petrol Pump Sadhu Vaswani Marg","lat":28.6448,"lng":77.1934},{"stop_id":"737","stop_name":"Meghdoot Bhawan","lat":28.644,"lng":77.200983},{"stop_id":"738","stop_name":"Videocon Tower","lat":28.6441,"lng":77.2036},{"stop_id":"739","stop_name":"Paharganj Police Station","lat":28.646179,"lng":77.208232},{"stop_id":"740","stop_name":"Dispensary Paharganj","lat":28.6452,"lng":77.2133},{"stop_id":"741","stop_name":"Ajmeri Gate / Kamla Market","lat":28.643383,"lng":77.225733},{"stop_id":"742","stop_name":"JLN Marg","lat":28.642068,"lng":77.228325},{"stop_id":"743","stop_name":"Zakir Husain College","lat":28.641166,"lng":77.230002},{"stop_id":"744","stop_name":"Turkman Gate / GB Pant Hospital","lat":28.641834,"lng":77.233136},{"stop_id":"745","stop_name":"Delite Cinema","lat":28.6412,"lng":77.235016},{"stop_id":"746","stop_name":"Delhi Gate","lat":28.64073,"lng":77.238584},{"stop_id":"747","stop_name":"Red Fort","lat":28.653961,"lng":77.23645},{"stop_id":"748","stop_name":"GPO","lat":28.661944,"lng":77.234569},{"stop_id":"749","stop_name":"Guru Govind Singh University (Kashmere Gate)","lat":28.665331,"lng":77.230123},{"stop_id":"750","stop_name":"ISBT Kashmere Gate","lat":28.666756,"lng":77.229348},{"stop_id":"751","stop_name":"Mori Gate Terminal","lat":28.666517,"lng":77.225883},{"stop_id":"752","stop_name":"Bawana Sec 1 Cluster Depot","lat":28.7950053613795,"lng":77.0411360466838},{"stop_id":"755","stop_name":"Delhi Jal Board Bawana","lat":28.815521,"lng":77.058038},{"stop_id":"756","stop_name":"Sannoth Crossing / Ghoga Crossing","lat":28.819594,"lng":77.063606},{"stop_id":"757","stop_name":"Sannoth Village","lat":28.81561,"lng":77.07098},{"stop_id":"758","stop_name":"Holambi Kalan JJ Colony","lat":28.809729,"lng":77.087395},{"stop_id":"760","stop_name":"Holambi Kalan Crossing","lat":28.809357,"lng":77.10746},{"stop_id":"761","stop_name":"Jeet Farm","lat":28.800239,"lng":77.114663},{"stop_id":"762","stop_name":"Holambi Khurd Crossing","lat":28.797139,"lng":77.117385},{"stop_id":"763","stop_name":"Alipur Garhi","lat":28.79804,"lng":77.127346},{"stop_id":"764","stop_name":"Alipur Village","lat":28.797253,"lng":77.133138},{"stop_id":"765","stop_name":"Pwd Office","lat":28.8022,"lng":77.1386},{"stop_id":"766","stop_name":"Bakauli Village","lat":28.811931,"lng":77.135652},{"stop_id":"767","stop_name":"Khampur Village","lat":28.824805,"lng":77.13183},{"stop_id":"768","stop_name":"Tikri Khurd Crossing","lat":28.835211,"lng":77.12846},{"stop_id":"769","stop_name":"Tikri Khurd","lat":28.835878,"lng":77.1238},{"stop_id":"770","stop_name":"Anand Vihar ISBT Terminal","lat":28.646328,"lng":77.314904},{"stop_id":"771","stop_name":"Ram Prastha Crossing","lat":28.660523,"lng":77.319926},{"stop_id":"772","stop_name":"Ram Prastha Temple","lat":28.663552,"lng":77.320362},{"stop_id":"773","stop_name":"Surya Nagar (Gazipur Road)","lat":28.666954,"lng":77.321483},{"stop_id":"774","stop_name":"Shahdara Border GT Road","lat":28.676241,"lng":77.321331},{"stop_id":"775","stop_name":"Jhilmil Xing","lat":28.676186,"lng":77.317518},{"stop_id":"776","stop_name":"Dilshad Garden GT Road","lat":28.675883,"lng":77.3118},{"stop_id":"777","stop_name":"Telephone Exchange","lat":28.675817,"lng":77.309217},{"stop_id":"778","stop_name":"Mansarovar Park Metro Station","lat":28.675479,"lng":77.300119},{"stop_id":"779","stop_name":"Welcome Colony Metro Station","lat":28.672,"lng":77.275},{"stop_id":"780","stop_name":"Welcome Colony","lat":28.6717988050285,"lng":77.2733799557566},{"stop_id":"781","stop_name":"Seelampur Metro Station","lat":28.670722,"lng":77.266485},{"stop_id":"782","stop_name":"Dharam Pura","lat":28.670717,"lng":77.261917},{"stop_id":"783","stop_name":"Shastri Park","lat":28.6723,"lng":77.2571},{"stop_id":"784","stop_name":"Shastri Park","lat":28.673195,"lng":77.251804},{"stop_id":"785","stop_name":"Shyam Giri Mandir","lat":28.67382,"lng":77.248024},{"stop_id":"786","stop_name":"Shastri Park DMRC Depot","lat":28.674167,"lng":77.243433},{"stop_id":"787","stop_name":"Shastri Park Metro Depot","lat":28.673433,"lng":77.241183},{"stop_id":"788","stop_name":"ISBT Bridge","lat":28.6692301,"lng":77.228774},{"stop_id":"789","stop_name":"Azad Market","lat":28.6627,"lng":77.2075},{"stop_id":"790","stop_name":"Bara Hindu Rao","lat":28.660752,"lng":77.204049},{"stop_id":"791","stop_name":"Model Basti","lat":28.657229,"lng":77.203685},{"stop_id":"792","stop_name":"Guru Govind Singh Marg","lat":28.655331,"lng":77.198831},{"stop_id":"793","stop_name":"Tibiya College","lat":28.65754,"lng":77.194648},{"stop_id":"794","stop_name":"Ram Jas Road","lat":28.659086,"lng":77.191154},{"stop_id":"795","stop_name":"Liberty Cinema","lat":28.659825,"lng":77.188866},{"stop_id":"796","stop_name":"Sarai Rohilla Govt Qtrs (Rohtak Road)","lat":28.661182,"lng":77.185019},{"stop_id":"797","stop_name":"Sarai Rohila (Rohtak Road)","lat":28.662538,"lng":77.182083},{"stop_id":"798","stop_name":"Anand Parvat Industrial Area","lat":28.665198,"lng":77.174292},{"stop_id":"799","stop_name":"Daya Basti Flyover","lat":28.666349,"lng":77.170126},{"stop_id":"800","stop_name":"Zakhira Flyover","lat":28.668391,"lng":77.165402},{"stop_id":"801","stop_name":"Ashok Park Main","lat":28.671287,"lng":77.156585},{"stop_id":"802","stop_name":"Ram Pura","lat":28.671806,"lng":77.15387},{"stop_id":"803","stop_name":"Punjabi Bagh West Power House","lat":28.672782,"lng":77.146897},{"stop_id":"804","stop_name":"Punjabi Bagh Terminal (Rohtak Road)","lat":28.673121,"lng":77.143689},{"stop_id":"805","stop_name":"C 4 Yamuna Vihar","lat":28.702199,"lng":77.278463},{"stop_id":"806","stop_name":"Yamuna Vihar Brijpuri","lat":28.702588,"lng":77.273744},{"stop_id":"807","stop_name":"B-Block Yamuna Vihar","lat":28.702752,"lng":77.271309},{"stop_id":"808","stop_name":"Bhajanpura","lat":28.703351,"lng":77.263706},{"stop_id":"809","stop_name":"Khajuri","lat":28.7039,"lng":77.2562},{"stop_id":"810","stop_name":"Garhi Maidu","lat":28.6992,"lng":77.255533},{"stop_id":"811","stop_name":"Gamri Extn Pusta No.5","lat":28.695121,"lng":77.254951},{"stop_id":"812","stop_name":"Kartar Nagar","lat":28.68945,"lng":77.254167},{"stop_id":"813","stop_name":"Jagjit Nagar","lat":28.686317,"lng":77.254567},{"stop_id":"814","stop_name":"Pusta No-2","lat":28.683767,"lng":77.255217},{"stop_id":"815","stop_name":"New Usman Pur Pusta No-1","lat":28.679983,"lng":77.256183},{"stop_id":"816","stop_name":"Zero Pusta","lat":28.6778,"lng":77.256783},{"stop_id":"817","stop_name":"Shastri Park Pusta Road","lat":28.674017,"lng":77.2563},{"stop_id":"818","stop_name":"Ludlow Castle","lat":28.672284,"lng":77.225834},{"stop_id":"819","stop_name":"Exchange Store / Civil Lines Metro Station","lat":28.676749,"lng":77.224848},{"stop_id":"820","stop_name":"IP College","lat":28.67961,"lng":77.22396},{"stop_id":"821","stop_name":"Old Secretariat (Postal Account Office)","lat":28.683783,"lng":77.222172},{"stop_id":"822","stop_name":"Vidhan Sabha Metro Station","lat":28.687802,"lng":77.221442},{"stop_id":"823","stop_name":"Khyber Pass","lat":28.690613,"lng":77.221168},{"stop_id":"824","stop_name":"Mall Road","lat":28.693646,"lng":77.218432},{"stop_id":"825","stop_name":"Vishwa Vidyalaya Metro Station","lat":28.695213,"lng":77.214096},{"stop_id":"826","stop_name":"INS Hostel","lat":28.696149,"lng":77.211705},{"stop_id":"827","stop_name":"GTB Nagar / Haqiqat Nagar","lat":28.698223,"lng":77.207504},{"stop_id":"829","stop_name":"Shivaji Park","lat":28.638657,"lng":77.224181},{"stop_id":"830","stop_name":"Super Bazar","lat":28.632651,"lng":77.223088},{"stop_id":"831","stop_name":"Palika Kendra","lat":28.628567,"lng":77.216783},{"stop_id":"832","stop_name":"P S Parliament / Jantar Mantar","lat":28.625507,"lng":77.21432},{"stop_id":"833","stop_name":"Aakashwani Bhawan","lat":28.620515,"lng":77.212714},{"stop_id":"834","stop_name":"Krishi Bhawan","lat":28.615,"lng":77.2124},{"stop_id":"835","stop_name":"Udyog Bhawan","lat":28.6126,"lng":77.2122},{"stop_id":"836","stop_name":"Sunehri Masjid/ G Block","lat":28.609631,"lng":77.209798},{"stop_id":"837","stop_name":"Krishan Menon Marg","lat":28.6051,"lng":77.2111},{"stop_id":"838","stop_name":"PS Tuglak Road","lat":28.599917,"lng":77.211317},{"stop_id":"839","stop_name":"Tughlaq Crescent","lat":28.5949,"lng":77.212},{"stop_id":"840","stop_name":"SJ Madrasa","lat":28.586708,"lng":77.212779},{"stop_id":"841","stop_name":"SJ Airport","lat":28.584236,"lng":77.212605},{"stop_id":"842","stop_name":"INA Colony","lat":28.5759,"lng":77.2102},{"stop_id":"843","stop_name":"Kidwai Nagar","lat":28.574012,"lng":77.209568},{"stop_id":"844","stop_name":"AIIMS","lat":28.566983,"lng":77.20795},{"stop_id":"845","stop_name":"Yusuf Sarai","lat":28.5627,"lng":77.2077},{"stop_id":"846","stop_name":"Green Park","lat":28.5572,"lng":77.2068},{"stop_id":"847","stop_name":"Hauz Khas","lat":28.5529,"lng":77.2051},{"stop_id":"848","stop_name":"Padhmini Enclave","lat":28.5498,"lng":77.2038},{"stop_id":"849","stop_name":"IIT Gate","lat":28.5462,"lng":77.2025},{"stop_id":"850","stop_name":"Panchsheel Club / Sarvpriya Vihar","lat":28.543924,"lng":77.205014},{"stop_id":"851","stop_name":"Bhavishya Nidhi Enclave","lat":28.5428,"lng":77.209567},{"stop_id":"852","stop_name":"Begumpur (Malviya Nagar)","lat":28.5370086315091,"lng":77.2098981836701},{"stop_id":"853","stop_name":"Malviya Nagar","lat":28.535406,"lng":77.208553},{"stop_id":"854","stop_name":"Aurobindo College","lat":28.5326,"lng":77.2046},{"stop_id":"855","stop_name":"Geetanjali Enclave","lat":28.530317,"lng":77.199633},{"stop_id":"856","stop_name":"PNB Geetanjali","lat":28.529417,"lng":77.2014},{"stop_id":"857","stop_name":"Saket A Block (Malviya Nagar Metro Station)","lat":28.528,"lng":77.205},{"stop_id":"858","stop_name":"Press Enclave","lat":28.5282,"lng":77.2091},{"stop_id":"859","stop_name":"HaujRani / MaxHospital","lat":28.5285,"lng":77.2119},{"stop_id":"860","stop_name":"Hauj Rani","lat":28.5297,"lng":77.2158},{"stop_id":"861","stop_name":"Khirki Village","lat":28.530183,"lng":77.21835},{"stop_id":"862","stop_name":"PSRI","lat":28.53145,"lng":77.223883},{"stop_id":"863","stop_name":"Vocational College","lat":28.532283,"lng":77.22695},{"stop_id":"864","stop_name":"Sheikh Sarai Phase II","lat":28.53305,"lng":77.230667},{"stop_id":"865","stop_name":"Pushpa Bhawan","lat":28.527,"lng":77.231201},{"stop_id":"866","stop_name":"Madangir DDA Flats","lat":28.524690785977,"lng":77.2303766300063},{"stop_id":"867","stop_name":"Ambedkar Nagar Terminal","lat":28.5150204,"lng":77.2295507},{"stop_id":"868","stop_name":"Ambedkar Nagar Depot","lat":28.515267,"lng":77.2284},{"stop_id":"869","stop_name":"Khanpur Extension / Devli Xing","lat":28.514,"lng":77.2344},{"stop_id":"870","stop_name":"Vayu Sena Bad (Tigri)","lat":28.5129,"lng":77.2389},{"stop_id":"871","stop_name":"Batra Hospital / Satya Narayan Mandir","lat":28.5124,"lng":77.2433},{"stop_id":"872","stop_name":"Hamdard Nagar / Sangam Vihar","lat":28.512167,"lng":77.248667},{"stop_id":"873","stop_name":"Kendriya Terminal (Pt. Pant Marg)","lat":28.6214,"lng":77.2064},{"stop_id":"874","stop_name":"Kendriya Terminal / Gurudwara Rakab Gunj","lat":28.621017,"lng":77.205283},{"stop_id":"875","stop_name":"Talkatora Road","lat":28.6222,"lng":77.2031},{"stop_id":"876","stop_name":"Dr. RML Hospital","lat":28.6223961,"lng":77.1965567},{"stop_id":"877","stop_name":"Talkatora Stadium Garden","lat":28.6212541,"lng":77.1942054},{"stop_id":"878","stop_name":"Sardar Patel Road Xing (11 Murti)","lat":28.611,"lng":77.1908},{"stop_id":"879","stop_name":"Palika Kutumb","lat":28.6078,"lng":77.1891},{"stop_id":"880","stop_name":"Bhartiya Sadhu Samaj","lat":28.603917,"lng":77.1845},{"stop_id":"881","stop_name":"Railway Colony (Sardar Patel Marg)","lat":28.600783,"lng":77.1785},{"stop_id":"882","stop_name":"Bapu Dham","lat":28.5994,"lng":77.1758},{"stop_id":"883","stop_name":"Officer Enclave S.P Marg","lat":28.597,"lng":77.1713},{"stop_id":"884","stop_name":"Dhaula Kuan","lat":28.592721,"lng":77.163492},{"stop_id":"885","stop_name":"Golf Club","lat":28.592403,"lng":77.159084},{"stop_id":"886","stop_name":"R R Line","lat":28.59572,"lng":77.150948},{"stop_id":"887","stop_name":"S O Flats Carriappa Marg","lat":28.6002,"lng":77.139733},{"stop_id":"888","stop_name":"Thimiyan Park","lat":28.60265,"lng":77.133483},{"stop_id":"889","stop_name":"Kirbi Place","lat":28.6051995,"lng":77.1265753},{"stop_id":"890","stop_name":"Supply Depot","lat":28.606633,"lng":77.123233},{"stop_id":"891","stop_name":"Janak Setu","lat":28.6104,"lng":77.1138},{"stop_id":"892","stop_name":"Lajwanti Garden","lat":28.613845,"lng":77.106342},{"stop_id":"893","stop_name":"D Block Janak Puri","lat":28.610606,"lng":77.10369},{"stop_id":"894","stop_name":"SagarPur Vashisht park","lat":28.609254,"lng":77.0996},{"stop_id":"895","stop_name":"Desu Colony Janakpuri","lat":28.610901,"lng":77.098786},{"stop_id":"896","stop_name":"C5A Janakpuri","lat":28.6155,"lng":77.097},{"stop_id":"897","stop_name":"Central Market C3 Janakpuri","lat":28.61525,"lng":77.092367},{"stop_id":"898","stop_name":"C2 Janakpuri","lat":28.6216,"lng":77.0841},{"stop_id":"899","stop_name":"A3 Janak Puri","lat":28.619583,"lng":77.079267},{"stop_id":"900","stop_name":"Janak Puri","lat":28.617945,"lng":77.077135},{"stop_id":"901","stop_name":"Jivan Park","lat":28.619637,"lng":77.073604},{"stop_id":"902","stop_name":"Tilak Pul","lat":28.621389,"lng":77.070002},{"stop_id":"903","stop_name":"Uttam Nagar /#REF!  Janak Puri","lat":28.624,"lng":77.068009},{"stop_id":"904","stop_name":"Tilak Nagar Terminal","lat":28.6363235433356,"lng":77.0957438603281},{"stop_id":"905","stop_name":"Uttam Nagar","lat":28.623129,"lng":77.061189},{"stop_id":"906","stop_name":"Prem Nagar","lat":28.621893,"lng":77.056719},{"stop_id":"907","stop_name":"Om Vihar","lat":28.621079,"lng":77.052669},{"stop_id":"908","stop_name":"Kiran Garden","lat":28.620776,"lng":77.049872},{"stop_id":"909","stop_name":"Nawada","lat":28.620222,"lng":77.04552},{"stop_id":"910","stop_name":"Mohan Garden","lat":28.6200493466924,"lng":77.039162961751},{"stop_id":"911","stop_name":"Sewak Park Dwarka More Metro Station","lat":28.619263,"lng":77.033731},{"stop_id":"914","stop_name":"Police Station Najafgarh","lat":28.609477,"lng":76.983288},{"stop_id":"915","stop_name":"Dhansa Stand","lat":28.6114911357481,"lng":76.9779095460606},{"stop_id":"916","stop_name":"Khera More","lat":28.610938,"lng":76.97401},{"stop_id":"918","stop_name":"Nanak Piyau","lat":28.6091779240052,"lng":76.967157118307},{"stop_id":"919","stop_name":"Indra Service Station","lat":28.6085418137362,"lng":76.958778258301},{"stop_id":"920","stop_name":"Mitraon Crossing","lat":28.6081146125039,"lng":76.9511722513845},{"stop_id":"921","stop_name":"Mitraon Village","lat":28.6080681907939,"lng":76.9473243300908},{"stop_id":"922","stop_name":"Mundhela Khurd School","lat":28.616066,"lng":76.896431},{"stop_id":"923","stop_name":"Mundhela Khurd Village","lat":28.617177,"lng":76.893091},{"stop_id":"924","stop_name":"Jhingola Village","lat":28.83096,"lng":77.199706},{"stop_id":"925","stop_name":"Jhingola Crossing","lat":28.831184,"lng":77.18802},{"stop_id":"926","stop_name":"Akbar Pur Majra","lat":28.834531,"lng":77.182394},{"stop_id":"927","stop_name":"Akbar Pur Majra Crossing","lat":28.832511,"lng":77.179184},{"stop_id":"928","stop_name":"Bakhtawar Pur Garhi","lat":28.82942,"lng":77.178662},{"stop_id":"929","stop_name":"Bakhtawar Pur Primary School","lat":28.825833,"lng":77.174563},{"stop_id":"930","stop_name":"Bakhtawar Pur Village","lat":28.82208,"lng":77.171555},{"stop_id":"931","stop_name":"Triveni Colony","lat":28.818615,"lng":77.166323},{"stop_id":"932","stop_name":"Bakhtawar Pur School","lat":28.814533,"lng":77.161217},{"stop_id":"933","stop_name":"Palla More","lat":28.80336,"lng":77.143775},{"stop_id":"934","stop_name":"Mcd Store","lat":28.793717,"lng":77.142333},{"stop_id":"935","stop_name":"Jahangirpuri GT Road","lat":28.7252,"lng":77.1634},{"stop_id":"936","stop_name":"Ice Factory (Rani Jhansi Road)","lat":28.667228,"lng":77.209036},{"stop_id":"937","stop_name":"Badarpur Border (T)","lat":28.493092,"lng":77.303489},{"stop_id":"938","stop_name":"Jaitpur Mor","lat":28.497367,"lng":77.302117},{"stop_id":"939","stop_name":"Badarpur M B Road / Rajiv Gandhi Stadium","lat":28.499178,"lng":77.299004},{"stop_id":"940","stop_name":"Prehlad Pur","lat":28.500583,"lng":77.293883},{"stop_id":"941","stop_name":"Surajkund Crossing","lat":28.501567,"lng":77.289765},{"stop_id":"942","stop_name":"Lal Kuan","lat":28.5023,"lng":77.2833},{"stop_id":"943","stop_name":"Prem Nagar","lat":28.5036,"lng":77.2801},{"stop_id":"944","stop_name":"Maa Anand Mayee Marg","lat":28.5061,"lng":77.27835},{"stop_id":"945","stop_name":"Tehkhand Depot DTC","lat":28.51095,"lng":77.280917},{"stop_id":"947","stop_name":"Holambi Kalan Terminal","lat":28.801906,"lng":77.096118},{"stop_id":"948","stop_name":"Holambi Khurd","lat":28.799903,"lng":77.096104},{"stop_id":"949","stop_name":"Holambi Khurd DRID College","lat":28.795403,"lng":77.097915},{"stop_id":"950","stop_name":"Minda Farm","lat":28.79584,"lng":77.11041},{"stop_id":"951","stop_name":"Azadpur Terminal","lat":28.707667,"lng":77.180271},{"stop_id":"952","stop_name":"Model Town III","lat":28.706127,"lng":77.185301},{"stop_id":"953","stop_name":"Model Town II","lat":28.704282,"lng":77.190629},{"stop_id":"954","stop_name":"Alpana Cinema (Model Town Mtr Stn)","lat":28.703017,"lng":77.193837},{"stop_id":"955","stop_name":"New Police Line","lat":28.699589,"lng":77.202973},{"stop_id":"957","stop_name":"Red Fort","lat":28.65808,"lng":77.236946},{"stop_id":"958","stop_name":"Jama Masjid","lat":28.650847,"lng":77.238458},{"stop_id":"959","stop_name":"Darya Ganj Golcha Cinema","lat":28.644152,"lng":77.240425},{"stop_id":"960","stop_name":"Delhi Gate (JLN Marg)","lat":28.639959,"lng":77.238071},{"stop_id":"961","stop_name":"LNJP Hospital","lat":28.6401,"lng":77.234817},{"stop_id":"962","stop_name":"Zakir Husain College","lat":28.641133,"lng":77.229676},{"stop_id":"963","stop_name":"JLN Marg","lat":28.6421,"lng":77.22785},{"stop_id":"964","stop_name":"Vivekanand Marg / Minto Road","lat":28.640867,"lng":77.225733},{"stop_id":"966","stop_name":"Rani Khera Depot II","lat":28.6996513751317,"lng":77.033633846895},{"stop_id":"967","stop_name":"Rani Khera Depot Crossing","lat":28.6977936898634,"lng":77.0278941468983},{"stop_id":"968","stop_name":"Rani Khera Village","lat":28.704236,"lng":77.027661},{"stop_id":"969","stop_name":"Rani Khera School / Bhagya Vihar","lat":28.709239,"lng":77.027741},{"stop_id":"970","stop_name":"Mubarak Pur Crossing","lat":28.712817,"lng":77.027833},{"stop_id":"972","stop_name":"Shaheed Bhagat Singh Nagar","lat":28.725017,"lng":77.029167},{"stop_id":"973","stop_name":"Karala Crossing","lat":28.731617,"lng":77.03235},{"stop_id":"974","stop_name":"Karala Village","lat":28.731583,"lng":77.036983},{"stop_id":"975","stop_name":"Karala School","lat":28.730801,"lng":77.039803},{"stop_id":"976","stop_name":"Rama Vihar","lat":28.7288,"lng":77.0456},{"stop_id":"977","stop_name":"Sukhbeer Nagar","lat":28.727633,"lng":77.04895},{"stop_id":"978","stop_name":"Karala Patshala","lat":28.726567,"lng":77.053367},{"stop_id":"979","stop_name":"Rajeev Nagar","lat":28.724983,"lng":77.058433},{"stop_id":"980","stop_name":"Begum Pur (Kanjhawala Road)","lat":28.721201,"lng":77.065981},{"stop_id":"981","stop_name":"Rohini Sec-21","lat":28.7188,"lng":77.069767},{"stop_id":"982","stop_name":"Poothkalan","lat":28.71589,"lng":77.07422},{"stop_id":"983","stop_name":"Pooth Kalan","lat":28.714336,"lng":77.077075},{"stop_id":"984","stop_name":"Brahm Shakti Hospital","lat":28.712372,"lng":77.080713},{"stop_id":"985","stop_name":"Buddh Vihar","lat":28.706783,"lng":77.084171},{"stop_id":"986","stop_name":"Buddh Vihar","lat":28.706566,"lng":77.084098},{"stop_id":"987","stop_name":"Mangol Puri Y Block","lat":28.702762,"lng":77.089612},{"stop_id":"988","stop_name":"Mangol Pur Khurd","lat":28.700117,"lng":77.094277},{"stop_id":"989","stop_name":"Avantika Xing","lat":28.698384,"lng":77.097225},{"stop_id":"990","stop_name":"Mangolpur Kalan Village","lat":28.695671,"lng":77.101095},{"stop_id":"991","stop_name":"Mangol Pur School (Outer Ring Road)","lat":28.694414,"lng":77.106315},{"stop_id":"992","stop_name":"Rohini Depot III","lat":28.695494,"lng":77.108823},{"stop_id":"993","stop_name":"Puspanjali Enclave Rohini Depot 3","lat":28.696609,"lng":77.112857},{"stop_id":"994","stop_name":"Kali Mata Mandir","lat":28.697446,"lng":77.115993},{"stop_id":"995","stop_name":"Deepali Chowk Ring Road","lat":28.698196,"lng":77.119004},{"stop_id":"996","stop_name":"Saraswati Vihar C Block","lat":28.700141,"lng":77.12472},{"stop_id":"997","stop_name":"Madhuban Chowk Outer Ring Road","lat":28.701935,"lng":77.128048},{"stop_id":"998","stop_name":"RU Block Power House","lat":28.708375,"lng":77.134799},{"stop_id":"999","stop_name":"Pitampura RU Block","lat":28.71064,"lng":77.13667},{"stop_id":"1000","stop_name":"Uttri Pitam Pura","lat":28.715019,"lng":77.138989},{"stop_id":"1001","stop_name":"Pitam Pura BV Block","lat":28.71649,"lng":77.13932},{"stop_id":"1002","stop_name":"Haidarpur Water Works","lat":28.72155,"lng":77.140383},{"stop_id":"1003","stop_name":"PS Badli","lat":28.72515,"lng":77.14229},{"stop_id":"1004","stop_name":"Jail Road Rohini Sec 18","lat":28.727265,"lng":77.143241},{"stop_id":"1005","stop_name":"Badli Village","lat":28.731937,"lng":77.140125},{"stop_id":"1006","stop_name":"Rohini Sec 18 Block","lat":28.735794,"lng":77.137389},{"stop_id":"1007","stop_name":"Rohini Sec 18","lat":28.73884,"lng":77.135808},{"stop_id":"1008","stop_name":"Qutub Minar","lat":28.526517,"lng":77.18605},{"stop_id":"1009","stop_name":"T B Hospital","lat":28.5283,"lng":77.1897},{"stop_id":"1010","stop_name":"DDA Flats Lado Sarai","lat":28.529833,"lng":77.192117},{"stop_id":"1011","stop_name":"PTS","lat":28.532964,"lng":77.195504},{"stop_id":"1012","stop_name":"MMTC / Adhchini Village","lat":28.535351,"lng":77.196849},{"stop_id":"1013","stop_name":"Adhchini Village","lat":28.537823,"lng":77.19807},{"stop_id":"1014","stop_name":"Mothers International School","lat":28.541141,"lng":77.1995},{"stop_id":"1015","stop_name":"IIT Gate","lat":28.543571,"lng":77.20071},{"stop_id":"1016","stop_name":"IIT Gate (Aurobindo Marg)","lat":28.54585,"lng":77.201967},{"stop_id":"1017","stop_name":"Padmani Enclave","lat":28.5492,"lng":77.2034},{"stop_id":"1018","stop_name":"Hauz Khas","lat":28.553,"lng":77.2049},{"stop_id":"1019","stop_name":"Green Park","lat":28.558583,"lng":77.206733},{"stop_id":"1020","stop_name":"Yusuf Sarai","lat":28.5626,"lng":77.2074},{"stop_id":"1021","stop_name":"Safdurjung Hospital / AIIMS","lat":28.56725,"lng":77.207733},{"stop_id":"1022","stop_name":"Kidwai Nagar","lat":28.575667,"lng":77.209735},{"stop_id":"1023","stop_name":"SJ Airport","lat":28.584411,"lng":77.212295},{"stop_id":"1024","stop_name":"S J Madrasa","lat":28.588591,"lng":77.212721},{"stop_id":"1025","stop_name":"Prithvi Raj Road","lat":28.593162,"lng":77.21433},{"stop_id":"1026","stop_name":"Prithvi Raj Road Crossing","lat":28.597353,"lng":77.21819},{"stop_id":"1027","stop_name":"Claridges Hotel","lat":28.602055,"lng":77.217749},{"stop_id":"1028","stop_name":"National Museum","lat":28.611677,"lng":77.218376},{"stop_id":"1029","stop_name":"National Archives","lat":28.614678,"lng":77.218542},{"stop_id":"1030","stop_name":"Windsor Place","lat":28.617737,"lng":77.218752},{"stop_id":"1031","stop_name":"Western Court","lat":28.623775,"lng":77.219113},{"stop_id":"1032","stop_name":"Indian Oil Bhawan","lat":28.62853,"lng":77.219448},{"stop_id":"1033","stop_name":"Shivaji Park","lat":28.638674,"lng":77.223986},{"stop_id":"1034","stop_name":"Vivekanand Marg / Minto Road","lat":28.64145,"lng":77.226006},{"stop_id":"1035","stop_name":"PS Kamla Market","lat":28.643042,"lng":77.226021},{"stop_id":"1036","stop_name":"Ajmeri Gate / Kamla Market","lat":28.644083,"lng":77.22405},{"stop_id":"1038","stop_name":"Punjabi Bagh Terminal","lat":28.667414,"lng":77.135796},{"stop_id":"1039","stop_name":"Punjabi Bagh Club","lat":28.663553,"lng":77.131207},{"stop_id":"1040","stop_name":"ESI Hospital","lat":28.658396,"lng":77.128719},{"stop_id":"1041","stop_name":"Rajdhani College / Raja Garden","lat":28.654765,"lng":77.125441},{"stop_id":"1042","stop_name":"Rajouri Garden Market","lat":28.645609,"lng":77.127065},{"stop_id":"1043","stop_name":"Mayapuri Chowk (Ring Road)","lat":28.638603,"lng":77.129843},{"stop_id":"1044","stop_name":"Naraina Vihar","lat":28.627517,"lng":77.134183},{"stop_id":"1045","stop_name":"Naraina Village","lat":28.618591,"lng":77.136612},{"stop_id":"1046","stop_name":"COD Ring Road","lat":28.612925,"lng":77.137272},{"stop_id":"1047","stop_name":"Barar Square","lat":28.607394,"lng":77.141632},{"stop_id":"1048","stop_name":"Garrison Engg.","lat":28.6053666666667,"lng":77.1474333333333},{"stop_id":"1049","stop_name":"RR Line","lat":28.60415,"lng":77.155333},{"stop_id":"1050","stop_name":"Dhaula Kuan (Ring Road)","lat":28.599544,"lng":77.162493},{"stop_id":"1051","stop_name":"Satya Niketan","lat":28.588732,"lng":77.170023},{"stop_id":"1052","stop_name":"Gurudwara Moti Bagh","lat":28.5851033,"lng":77.1724418},{"stop_id":"1053","stop_name":"South Moti Bagh (Ring Road)","lat":28.581943,"lng":77.174262},{"stop_id":"1054","stop_name":"South Moti Bagh","lat":28.577432,"lng":77.173731},{"stop_id":"1055","stop_name":"R. K. Puram Sec-12","lat":28.5757,"lng":77.1724},{"stop_id":"1056","stop_name":"Sangam Cinema","lat":28.573643,"lng":77.173644},{"stop_id":"1057","stop_name":"RK Puram Sec-10","lat":28.570222,"lng":77.17311},{"stop_id":"1058","stop_name":"Mohan Singh Market","lat":28.566602,"lng":77.176331},{"stop_id":"1059","stop_name":"R K Puram Sec-1 2","lat":28.564697,"lng":77.178246},{"stop_id":"1060","stop_name":"RK Puram Sec 1","lat":28.563268,"lng":77.178557},{"stop_id":"1061","stop_name":"R K Puram Nab","lat":28.561227,"lng":77.176315},{"stop_id":"1062","stop_name":"Munirka Village (T)","lat":28.558583,"lng":77.173811},{"stop_id":"1063","stop_name":"Munirka Family Planning","lat":28.556991,"lng":77.174527},{"stop_id":"1064","stop_name":"Munirka DDA Flats","lat":28.555501,"lng":77.17666},{"stop_id":"1065","stop_name":"ISTM","lat":28.552791,"lng":77.18088},{"stop_id":"1066","stop_name":"IIT Hostel","lat":28.550003,"lng":77.185541},{"stop_id":"1067","stop_name":"Jia Sarai","lat":28.548571,"lng":77.1891},{"stop_id":"1068","stop_name":"IIT Gate","lat":28.545957,"lng":77.196984},{"stop_id":"1069","stop_name":"Pushpa Bhawan","lat":28.5281528237937,"lng":77.2313535422157},{"stop_id":"1071","stop_name":"DDA Flats Kalka Ji","lat":28.527958,"lng":77.257446},{"stop_id":"1072","stop_name":"DDA Market kalka Ji","lat":28.530729,"lng":77.258493},{"stop_id":"1073","stop_name":"DDA Flats Kalka Ji","lat":28.531872,"lng":77.258961},{"stop_id":"1074","stop_name":"Govindpuri Ext Gali No 16","lat":28.533575,"lng":77.259665},{"stop_id":"1075","stop_name":"Rampuri Gali No 13","lat":28.534824,"lng":77.26013},{"stop_id":"1076","stop_name":"Govindpuri Gali No 5","lat":28.537641,"lng":77.261185},{"stop_id":"1077","stop_name":"Ram Puri / Govind Puri","lat":28.538625,"lng":77.261545},{"stop_id":"1078","stop_name":"Govind Puri","lat":28.539533,"lng":77.261894},{"stop_id":"1079","stop_name":"Govind Puri Metro Station","lat":28.545117,"lng":77.263917},{"stop_id":"1080","stop_name":"Kalkaji Mandir (MaaAnandmayeeMarg)","lat":28.547767,"lng":77.262833},{"stop_id":"1081","stop_name":"Kalkaji Mandir","lat":28.551166,"lng":77.263849},{"stop_id":"1082","stop_name":"NSIC","lat":28.552086,"lng":77.264157},{"stop_id":"1083","stop_name":"Laghu Udyog Sansthan(ModiMill)","lat":28.555533,"lng":77.265167},{"stop_id":"1084","stop_name":"SNPD","lat":28.560733,"lng":77.260617},{"stop_id":"1085","stop_name":"East of Kailash C-Block","lat":28.561933,"lng":77.258033},{"stop_id":"1086","stop_name":"East of Kailash B-Block","lat":28.561917,"lng":77.255567},{"stop_id":"1087","stop_name":"Garhi Gaon","lat":28.5621,"lng":77.2512},{"stop_id":"1088","stop_name":"Lajpat Nagar Crossing","lat":28.5643,"lng":77.2501},{"stop_id":"1089","stop_name":"PG DAV College / Sri Niwaspuri","lat":28.567384,"lng":77.252931},{"stop_id":"1090","stop_name":"Nehru Nagar","lat":28.569103,"lng":77.253865},{"stop_id":"1091","stop_name":"Ashram (Hari Nagar)","lat":28.573367,"lng":77.257533},{"stop_id":"1092","stop_name":"Golf Club / Sunder Nagar","lat":28.601413,"lng":77.23788},{"stop_id":"1093","stop_name":"Kaka Nagar","lat":28.60575,"lng":77.2371},{"stop_id":"1094","stop_name":"Pandwala Crossing","lat":28.558043,"lng":76.974025},{"stop_id":"1095","stop_name":"Osho Dhyan Mandir Jhatikra Road","lat":28.553981,"lng":76.973148},{"stop_id":"1096","stop_name":"Daulat Pur Crossing","lat":28.543431,"lng":76.970745},{"stop_id":"1097","stop_name":"Jhatikra Village","lat":28.522,"lng":76.966004},{"stop_id":"1098","stop_name":"Hari Nagar Depot","lat":28.6239,"lng":77.1017},{"stop_id":"1099","stop_name":"DA Block Hari Nagar","lat":28.6251,"lng":77.106867},{"stop_id":"1100","stop_name":"Hari Nagar Shaheed Pawan Sahni Chowk","lat":28.6252,"lng":77.1108},{"stop_id":"1101","stop_name":"DDU Hospital","lat":28.628,"lng":77.1107},{"stop_id":"1102","stop_name":"Beriwala Bagh","lat":28.63145,"lng":77.111967},{"stop_id":"1103","stop_name":"Swarg Ashram","lat":28.631,"lng":77.1149},{"stop_id":"1104","stop_name":"LIG Flats","lat":28.6309,"lng":77.1196},{"stop_id":"1105","stop_name":"Hari Nagar (Mohan Mandir) Mayapuri","lat":28.630683,"lng":77.124267},{"stop_id":"1107","stop_name":"Pandav Nagar","lat":28.650133,"lng":77.15335},{"stop_id":"1108","stop_name":"Telephone Exchange Karol Bagh","lat":28.643211,"lng":77.182029},{"stop_id":"1109","stop_name":"Panchkuian Road Banwari Lal Hospital","lat":28.64165,"lng":77.204717},{"stop_id":"1110","stop_name":"Balmiki Mandir Marg","lat":28.639967,"lng":77.204483},{"stop_id":"1111","stop_name":"PS Mandir Marg","lat":28.6374316,"lng":77.2029278},{"stop_id":"1112","stop_name":"Indraprastha Depot","lat":28.620212,"lng":77.248532},{"stop_id":"1113","stop_name":"IP Power House (ITO Ring Road)","lat":28.624567,"lng":77.247083},{"stop_id":"1114","stop_name":"Delhi Secretariat","lat":28.6283,"lng":77.2514},{"stop_id":"1115","stop_name":"Rainy Well","lat":28.628317,"lng":77.26065},{"stop_id":"1116","stop_name":"Laxmi Nagar / Shakarpur Crossing","lat":28.6297,"lng":77.277067},{"stop_id":"1117","stop_name":"Shakarpur School Block","lat":28.627433,"lng":77.279283},{"stop_id":"1118","stop_name":"Ganesh Nagar","lat":28.621017,"lng":77.285233},{"stop_id":"1119","stop_name":"Mother Dairy","lat":28.6191,"lng":77.286333},{"stop_id":"1120","stop_name":"Patparganj","lat":28.6164001,"lng":77.2881001},{"stop_id":"1121","stop_name":"P S Pandav Nagar","lat":28.6147,"lng":77.2903},{"stop_id":"1122","stop_name":"Shashi Garden Xing","lat":28.6136,"lng":77.2941},{"stop_id":"1123","stop_name":"Pocket-5 Mayur Vihar Ph-1","lat":28.6133,"lng":77.2956},{"stop_id":"1124","stop_name":"ITI Khichiripur","lat":28.613,"lng":77.2977},{"stop_id":"1125","stop_name":"Kotla Village","lat":28.6132,"lng":77.302},{"stop_id":"1126","stop_name":"Trilokpuri 13 Block","lat":28.612817,"lng":77.306183},{"stop_id":"1127","stop_name":"Chand Cinema","lat":28.612983,"lng":77.3125},{"stop_id":"1128","stop_name":"Super Bazar","lat":28.613567,"lng":77.316317},{"stop_id":"1129","stop_name":"Kalyan Puri Crossing (Chand Cinema Road)","lat":28.614764,"lng":77.318894},{"stop_id":"1130","stop_name":"Kondali Old","lat":28.613051,"lng":77.322989},{"stop_id":"1131","stop_name":"Dallu Pura","lat":28.60875,"lng":77.32005},{"stop_id":"1133","stop_name":"Mayur Vihar Phase 3 Crossing","lat":28.6018,"lng":77.32735},{"stop_id":"1134","stop_name":"New Kondali A1 Crossing","lat":28.602967,"lng":77.329133},{"stop_id":"1135","stop_name":"Bharti Public School","lat":28.606133,"lng":77.333967},{"stop_id":"1136","stop_name":"Mayur Vihar Phase III A1 Block","lat":28.608717,"lng":77.33715},{"stop_id":"1137","stop_name":"CRPF Camp","lat":28.611833,"lng":77.339833},{"stop_id":"1138","stop_name":"Mayur Vihar Phase III (T) Paper Market","lat":28.6182677175226,"lng":77.3358489865978},{"stop_id":"1139","stop_name":"Bawana Sec 5 Cluster Depot","lat":28.8102799,"lng":77.07600851},{"stop_id":"1140","stop_name":"Holambi Crossing","lat":28.800838,"lng":77.084369},{"stop_id":"1141","stop_name":"Pragati Power Station Bawana","lat":28.794236,"lng":77.073733},{"stop_id":"1142","stop_name":"Rajeev Ratan Aawas Bawana","lat":28.784427,"lng":77.063506},{"stop_id":"1143","stop_name":"Ganga Toli Mandir Bawana","lat":28.7866,"lng":77.05903},{"stop_id":"1144","stop_name":"Sec 1 / 2 Bawana Indst Area","lat":28.79043,"lng":77.05225},{"stop_id":"1145","stop_name":"DSIDC Bawana Sec 2","lat":28.803302,"lng":77.042627},{"stop_id":"1146","stop_name":"Bawana Soap Factory","lat":28.8018412,"lng":77.03929},{"stop_id":"1147","stop_name":"Bawana Dispensary","lat":28.80095,"lng":77.03738},{"stop_id":"1148","stop_name":"Bawana Village Chowk","lat":28.799973,"lng":77.03552},{"stop_id":"1149","stop_name":"Primary School","lat":28.797678,"lng":77.034438},{"stop_id":"1150","stop_name":"Panchayat Ghar","lat":28.7977933,"lng":77.031678},{"stop_id":"1151","stop_name":"Ishwar Colony","lat":28.794782,"lng":77.030053},{"stop_id":"1152","stop_name":"Krishna Vihar","lat":28.787407,"lng":77.025648},{"stop_id":"1153","stop_name":"Bajit Pur Crossing","lat":28.7849829,"lng":77.024146},{"stop_id":"1154","stop_name":"Shri Krishna Gaushala","lat":28.779365,"lng":77.021882},{"stop_id":"1155","stop_name":"Prem Piyau","lat":28.7659719123008,"lng":77.0165946162251},{"stop_id":"1156","stop_name":"Chandpur Khurd","lat":28.760231,"lng":77.015964},{"stop_id":"1157","stop_name":"Chandpur Kalan Crossing","lat":28.751341,"lng":77.014504},{"stop_id":"1158","stop_name":"SDM Court Kanjhawala","lat":28.740427,"lng":77.00954},{"stop_id":"1159","stop_name":"Kanjhawala Chowk","lat":28.73747,"lng":77.00814},{"stop_id":"1160","stop_name":"Shivam Plywood","lat":28.73544,"lng":77.01226},{"stop_id":"1161","stop_name":"Radha Swami Satsang / Rupali Enclave","lat":28.733977,"lng":77.020936},{"stop_id":"1162","stop_name":"Shiv vihar/Bheem chowk","lat":28.73345,"lng":77.02515},{"stop_id":"1164","stop_name":"Sultanpuri Terminal","lat":28.7034485401508,"lng":77.0750093121837},{"stop_id":"1166","stop_name":"Jhatikara Crossing","lat":28.584508,"lng":76.995742},{"stop_id":"1167","stop_name":"Rewla Taj Pur More","lat":28.577927,"lng":76.996696},{"stop_id":"1168","stop_name":"Chhawla School","lat":28.565889,"lng":77.000619},{"stop_id":"1169","stop_name":"Chhawla Village Kangan Heri Road","lat":28.561281,"lng":77.001954},{"stop_id":"1170","stop_name":"Rishal Vihar","lat":28.553617,"lng":76.992947},{"stop_id":"1171","stop_name":"Kangan Heri I","lat":28.5482401565663,"lng":76.9886899753303},{"stop_id":"1172","stop_name":"Daulat Pur Crossing","lat":28.5441968970541,"lng":76.970716524097},{"stop_id":"1173","stop_name":"Osho Dhyan Mandir Jhatikra Road","lat":28.554267,"lng":76.972951},{"stop_id":"1174","stop_name":"Pandwala Crossing","lat":28.5584955803388,"lng":76.9739450363129},{"stop_id":"1175","stop_name":"Rewla Khanpur Depot","lat":28.568907615,"lng":76.9764290249},{"stop_id":"1176","stop_name":"Harsh Vihar Terminal","lat":28.698566,"lng":77.322121},{"stop_id":"1177","stop_name":"Gagan Cinema","lat":28.695833,"lng":77.315364},{"stop_id":"1178","stop_name":"Sunder Nagri","lat":28.692839,"lng":77.316134},{"stop_id":"1179","stop_name":"Anand Gram","lat":28.688367,"lng":77.319753},{"stop_id":"1180","stop_name":"Anand Gram Kusht Ashram","lat":28.688794,"lng":77.321599},{"stop_id":"1181","stop_name":"Tahir Pur","lat":28.691467,"lng":77.324817},{"stop_id":"1182","stop_name":"DLF More","lat":28.6931,"lng":77.3274},{"stop_id":"1183","stop_name":"Shalimar Garden Crossing","lat":28.688383,"lng":77.330351},{"stop_id":"1184","stop_name":"New Seema Puri Depot Cluster","lat":28.685597,"lng":77.331404},{"stop_id":"1185","stop_name":"Mori Gate Terminal","lat":28.66608,"lng":77.22161},{"stop_id":"1186","stop_name":"Roop Nagar (GT Road)","lat":28.682636,"lng":77.197448},{"stop_id":"1187","stop_name":"Gur Mandi","lat":28.6849666666667,"lng":77.1959333333333},{"stop_id":"1188","stop_name":"Rana Pratap Bagh","lat":28.688886,"lng":77.192984},{"stop_id":"1189","stop_name":"Gurudwara Nanak Pyau","lat":28.6908,"lng":77.1918},{"stop_id":"1190","stop_name":"State Bank Colony","lat":28.6956,"lng":77.1878},{"stop_id":"1191","stop_name":"Telephone Exchange","lat":28.6975,"lng":77.1862},{"stop_id":"1192","stop_name":"Gujranwala Town","lat":28.6996,"lng":77.1845},{"stop_id":"1193","stop_name":"Bara Bagh","lat":28.7017,"lng":77.1828},{"stop_id":"1194","stop_name":"Nangli Puna","lat":28.7729,"lng":77.14305},{"stop_id":"1195","stop_name":"Jain Mandir","lat":28.777717,"lng":77.142033},{"stop_id":"1196","stop_name":"Budhpur GT Road","lat":28.78185,"lng":77.141117},{"stop_id":"1197","stop_name":"Bdo Office","lat":28.79315,"lng":77.139833},{"stop_id":"1198","stop_name":"Alipur Village GT Road","lat":28.796783,"lng":77.139433},{"stop_id":"1199","stop_name":"Palla More","lat":28.803533,"lng":77.143833},{"stop_id":"1200","stop_name":"Bakhtawar Pur School","lat":28.814633,"lng":77.161167},{"stop_id":"1201","stop_name":"Triveni Colony","lat":28.81865,"lng":77.166167},{"stop_id":"1202","stop_name":"Bakhtawar Pur Village","lat":28.822333,"lng":77.171717},{"stop_id":"1203","stop_name":"Bakhtawar Pur Primary School","lat":28.825933,"lng":77.174667},{"stop_id":"1204","stop_name":"Bakhtawar Pur Garhi","lat":28.82955,"lng":77.178633},{"stop_id":"1205","stop_name":"Akbar Pur Majra Crossing","lat":28.832525,"lng":77.179075},{"stop_id":"1208","stop_name":"Manglapuri / Palam Village","lat":28.5893166666667,"lng":77.08635},{"stop_id":"1209","stop_name":"Dwarka Flyover","lat":28.583939,"lng":77.091489},{"stop_id":"1210","stop_name":"Palam Colony Flyover","lat":28.581464,"lng":77.095955},{"stop_id":"1211","stop_name":"Prehlad Pur","lat":28.57969,"lng":77.101749},{"stop_id":"1212","stop_name":"Indian Oil Station","lat":28.577578,"lng":77.108753},{"stop_id":"1213","stop_name":"IOL","lat":28.575302,"lng":77.117054},{"stop_id":"1214","stop_name":"Palam Airport  / IGI Airport T1297","lat":28.569553,"lng":77.123517},{"stop_id":"1215","stop_name":"Palam More","lat":28.5682,"lng":77.1298},{"stop_id":"1216","stop_name":"NHW 8 Crossing","lat":28.5695,"lng":77.1326},{"stop_id":"1217","stop_name":"Kendriya Vidhyalaya APS Colony","lat":28.5747478912467,"lng":77.1409864689651},{"stop_id":"1218","stop_name":"APS Colony / Arjun Path","lat":28.575319,"lng":77.147055},{"stop_id":"1219","stop_name":"Subroto Park (Arjun Path)","lat":28.574355,"lng":77.151709},{"stop_id":"1220","stop_name":"Shani Mandir / Vasant Village","lat":28.575052,"lng":77.160073},{"stop_id":"1221","stop_name":"Swami Malai Mandir","lat":28.568464,"lng":77.164829},{"stop_id":"1222","stop_name":"R K Puram Sec-5","lat":28.563043,"lng":77.168215},{"stop_id":"1223","stop_name":"R K Puram Sec-5","lat":28.560598,"lng":77.170161},{"stop_id":"1224","stop_name":"Vasant Vihar Depot","lat":28.558899,"lng":77.171968},{"stop_id":"1225","stop_name":"Panchsheel Club","lat":28.543183,"lng":77.213617},{"stop_id":"1226","stop_name":"Sadhna Enclave","lat":28.543008,"lng":77.216415},{"stop_id":"1227","stop_name":"North Point (Nursing Home)","lat":28.542843,"lng":77.218556},{"stop_id":"1228","stop_name":"Swami Nagar","lat":28.542403,"lng":77.224741},{"stop_id":"1229","stop_name":"Masjid Moth","lat":28.540839,"lng":77.235989},{"stop_id":"1230","stop_name":"Savitri Cinema","lat":28.541702,"lng":77.238438},{"stop_id":"1231","stop_name":"OS Communications","lat":28.542779,"lng":77.241391},{"stop_id":"1232","stop_name":"Pumposh Enclave","lat":28.543647,"lng":77.243651},{"stop_id":"1233","stop_name":"Nehru Place Terminal","lat":28.548383,"lng":77.255294},{"stop_id":"1234","stop_name":"Sec A 5 Crossing Narela","lat":28.85772,"lng":77.10377},{"stop_id":"1235","stop_name":"Karala Crossing","lat":28.73144,"lng":77.03198},{"stop_id":"1236","stop_name":"Shaheed Bhagat Singh Nagar","lat":28.72487,"lng":77.02922},{"stop_id":"1237","stop_name":"Madanpur Dabas","lat":28.7164,"lng":77.0282},{"stop_id":"1238","stop_name":"Mubarak Pur Crossing","lat":28.712614,"lng":77.028059},{"stop_id":"1239","stop_name":"Rani Khera School / Bhagya Vihar","lat":28.70908,"lng":77.02799},{"stop_id":"1240","stop_name":"Rani Khera Village","lat":28.70358,"lng":77.02789},{"stop_id":"1241","stop_name":"Rani Khera Depot Crossing","lat":28.698024,"lng":77.027903},{"stop_id":"1242","stop_name":"Rani Khera Depot 1","lat":28.701092,"lng":77.033813},{"stop_id":"1243","stop_name":"New Delhi Railway Station Gate 2","lat":28.643002,"lng":77.223707},