[{"stop_id":"1","stop_name":"Dilshad Garden","lat":28.675991,"lng":77.321495,"lines":["Red"],"color":"#EE1C25"},{"stop_id":"2","stop_name":"Jhilmil","lat":28.675648,"lng":77.312393,"lines":["Red"],"color":"#EE1C25"},{"stop_id":"3","stop_name":"Mansrover park","lat":28.675352,"lng":77.301178,"lines":["Red"],"color":"#EE1C25"},{"stop_id":"4","stop_name":"Shahdara","lat":28.673531,"lng":77.28727,"lines":["Red"],"color":"#EE1C25"},{"stop_id":"5","stop_name":"Welcome","lat":28.671986,"lng":77.277931,"lines":["Red","Pink"],"color":"#EE1C25"},{"stop_id":"6","stop_name":"Seelam Pur","lat":28.670324,"lng":77.267311,"lines":["Red"],"color":"#EE1C25"},{"stop_id":"7","stop_name":"Shastri Park","lat":28.668451,"lng":77.250404,"lines":["Red"],"color":"#EE1C25"},{"stop_id":"8","stop_name":"Kashmere Gate","lat":28.667879,"lng":77.228012,"lines":["Red","Yellow","Violet"],"color":"#EE1C25"},{"stop_id":"9","stop_name":"Tis Hazari","lat":28.667137,"lng":77.216721,"lines":["Red"],"color":"#EE1C25"},{"stop_id":"10","stop_name":"Pul Bangash","lat":28.66571,"lng":77.206329,"lines":["Red"],"color":"#EE1C25"},{"stop_id":"11","stop_name":"Pratap Nagar","lat":28.666632,"lng":77.196869,"lines":["Red"],"color":"#EE1C25"},{"stop_id":"12","stop_name":"Shastri Nagar","lat":28.670135,"lng":77.181679,"lines":["Red"],"color":"#EE1C25"},{"stop_id":"13","stop_name":"Inderlok","lat":28.673452,"lng":77.170235,"lines":["Red","Green"],"color":"#EE1C25"},{"stop_id":"14","stop_name":"Kanhaiya Nagar","lat":28.682386,"lng":77.162552,"lines":["Red"],"color":"#EE1C25"},{"stop_id":"15","stop_name":"Keshav Puram","lat":28.688944,"lng":77.161774,"lines":["Red"],"color":"#EE1C25"},{"stop_id":"16","stop_name":"Netaji Subash Place","lat":28.695637,"lng":77.152428,"lines":["Red","Pink"],"color":"#EE1C25"},{"stop_id":"17","stop_name":"Kohat Enclave","lat":28.697943,"lng":77.140465,"lines":["Red"],"color":"#EE1C25"},{"stop_id":"18","stop_name":"Pitampura","lat":28.70318,"lng":77.132355,"lines":["Red"],"color":"#EE1C25"},{"stop_id":"19","stop_name":"Rohini East","lat":28.707941,"lng":77.125732,"lines":["Red"],"color":"#EE1C25"},{"stop_id":"20","stop_name":"Rohini West","lat":28.715008,"lng":77.115746,"lines":["Red"],"color":"#EE1C25"},{"stop_id":"21","stop_name":"Rithala","lat":28.720821,"lng":77.105042,"lines":["Red"],"color":"#EE1C25"},{"stop_id":"22","stop_name":"Mundka","lat":28.682411,"lng":77.028282,"lines":["Green"],"color":"#00A650"},{"stop_id":"23","stop_name":"Rajdhani Park","lat":28.682217,"lng":77.043869,"lines":["Green"],"color":"#00A650"},{"stop_id":"24","stop_name":"Nangloi Railway Station","lat":28.682091,"lng":77.05619,"lines":["Green"],"color":"#00A650"},{"stop_id":"25","stop_name":"Nangloi","lat":28.682356,"lng":77.064728,"lines":["Green"],"color":"#00A650"},{"stop_id":"26","stop_name":"Maharaja Surajmal Stadium","lat":28.681833,"lng":77.073891,"lines":["Green"],"color":"#00A650"},{"stop_id":"27","stop_name":"Udyog Nagar","lat":28.681047,"lng":77.078674,"lines":["Green"],"color":"#00A650"},{"stop_id":"28","stop_name":"Peera Garhi","lat":28.67972,"lng":77.092491,"lines":["Green"],"color":"#00A650"},{"stop_id":"29","stop_name":"Paschim Vihar (West)","lat":28.678539,"lng":77.102119,"lines":["Green"],"color":"#00A650"},{"stop_id":"30","stop_name":"Paschim Vihar (East)","lat":28.677305,"lng":77.112251,"lines":["Green"],"color":"#00A650"},{"stop_id":"31","stop_name":"Madipur","lat":28.676418,"lng":77.117294,"lines":["Green"],"color":"#00A650"},{"stop_id":"32","stop_name":"Shivaji Park","lat":28.674965,"lng":77.128258,"lines":["Green"],"color":"#00A650"},{"stop_id":"33","stop_name":"Punjabi Bagh","lat":28.672943,"lng":77.146011,"lines":["Green"],"color":"#00A650"},{"stop_id":"34","stop_name":"Ashok Park Main","lat":28.671572,"lng":77.155159,"lines":["Green"],"color":"#00A650"},{"stop_id":"35","stop_name":"Satguru Ram Singh Marg","lat":28.662188,"lng":77.157829,"lines":["Green"],"color":"#00A650"},{"stop_id":"36","stop_name":"Samaypur Badli","lat":28.742872,"lng":77.146545,"lines":["Yellow"],"color":"#FFCB05"},{"stop_id":"37","stop_name":"Rohini Sector 18-19","lat":28.740192,"lng":77.135574,"lines":["Yellow"],"color":"#FFCB05"},{"stop_id":"38","stop_name":"Haiderpur Badli Mor","lat":28.718657,"lng":77.149956,"lines":["Yellow"],"color":"#FFCB05"},{"stop_id":"39","stop_name":"Jahangirpuri","lat":28.72818,"lng":77.16124,"lines":["Yellow"],"color":"#FFCB05"},{"stop_id":"40","stop_name":"Adarsh Nagar","lat":28.696377,"lng":77.208809,"lines":["Yellow"],"color":"#FFCB05"},{"stop_id":"41","stop_name":"Azadpur","lat":28.707287,"lng":77.179863,"lines":["Yellow","Pink"],"color":"#FFCB05"},{"stop_id":"42","stop_name":"Model Town","lat":28.702833,"lng":77.193764,"lines":["Yellow"],"color":"#FFCB05"},{"stop_id":"43","stop_name":"Guru Tegh Bahadur Nagar","lat":28.698195,"lng":77.206985,"lines":["Yellow"],"color":"#FFCB05"},{"stop_id":"44","stop_name":"Vishwavidyalaya","lat":28.694765,"lng":77.212418,"lines":["Yellow"],"color":"#FFCB05"},{"stop_id":"45","stop_name":"Vidhan Sabha","lat":28.687845,"lng":77.221626,"lines":["Yellow"],"color":"#FFCB05"},{"stop_id":"46","stop_name":"Civil Lines","lat":28.676945,"lng":77.224953,"lines":["Yellow"],"color":"#FFCB05"},{"stop_id":"47","stop_name":"Chandni Chowk","lat":28.656443,"lng":77.229218,"lines":["Yellow"],"color":"#FFCB05"},{"stop_id":"48","stop_name":"Chawri Bazar","lat":28.649635,"lng":77.22628,"lines":["Yellow"],"color":"#FFCB05"},{"stop_id":"49","stop_name":"New Delhi","lat":28.642944,"lng":77.222351,"lines":["Yellow","Airport Express"],"color":"#FFCB05"},{"stop_id":"50","stop_name":"Rajiv Chowk","lat":28.632896,"lng":77.219574,"lines":["Yellow","Blue"],"color":"#FFCB05"},{"stop_id":"51","stop_name":"Patel Chowk","lat":28.622967,"lng":77.212288,"lines":["Yellow"],"color":"#FFCB05"},{"stop_id":"52","stop_name":"Central Secretariat","lat":28.614973,"lng":77.212029,"lines":["Yellow","Violet"],"color":"#FFCB05"},{"stop_id":"53","stop_name":"Udyog Bhawan","lat":28.611525,"lng":77.210052,"lines":["Yellow"],"color":"#FFCB05"},{"stop_id":"54","stop_name":"Lok Kalyan Marg","lat":28.597519,"lng":77.209122,"lines":["Yellow"],"color":"#FFCB05"},{"stop_id":"55","stop_name":"Jorbagh","lat":28.587234,"lng":77.212662,"lines":["Yellow"],"color":"#FFCB05"},{"stop_id":"56","stop_name":"Dilli Haat - INA","lat":28.575195,"lng":77.209473,"lines":["Yellow","Pink"],"color":"#FFCB05"},{"stop_id":"57","stop_name":"AIIMS","lat":28.568199,"lng":77.207947,"lines":["Yellow"],"color":"#FFCB05"},{"stop_id":"58","stop_name":"Green Park","lat":28.559853,"lng":77.206902,"lines":["Yellow"],"color":"#FFCB05"},{"stop_id":"59","stop_name":"Hauz Khas","lat":28.543346,"lng":77.206673,"lines":["Yellow","Magenta"],"color":"#FFCB05"},{"stop_id":"60","stop_name":"Malviya Nagar","lat":28.52817,"lng":77.205612,"lines":["Yellow"],"color":"#FFCB05"},{"stop_id":"61","stop_name":"Saket","lat":28.520638,"lng":77.199379,"lines":["Yellow"],"color":"#FFCB05"},{"stop_id":"62","stop_name":"Qutab Minar","lat":28.512714,"lng":77.185791,"lines":["Yellow"],"color":"#FFCB05"},{"stop_id":"63","stop_name":"Chhattarpur","lat":28.506584,"lng":77.174866,"lines":["Yellow"],"color":"#FFCB05"},{"stop_id":"64","stop_name":"Sultanpur","lat":28.499214,"lng":77.161362,"lines":["Yellow"],"color":"#FFCB05"},{"stop_id":"65","stop_name":"Ghitorni","lat":28.49383,"lng":77.149071,"lines":["Yellow"],"color":"#FFCB05"},{"stop_id":"66","stop_name":"Arjan Garh","lat":28.48082,"lng":77.12587,"lines":["Yellow"],"color":"#FFCB05"},{"stop_id":"67","stop_name":"Gurudronacharya","lat":28.482075,"lng":77.102219,"lines":["Yellow"],"color":"#FFCB05"},{"stop_id":"68","stop_name":"Sikanderpur","lat":28.481352,"lng":77.092995,"lines":["Yellow","Rapid Metro"],"color":"#FFCB05"},{"stop_id":"69","stop_name":"MG Road","lat":28.47967,"lng":77.080444,"lines":["Yellow"],"color":"#FFCB05"},{"stop_id":"70","stop_name":"IFFCO Chowk","lat":28.472137,"lng":77.072502,"lines":["Yellow"],"color":"#FFCB05"},{"stop_id":"71","stop_name":"Huda City Centre","lat":28.459118,"lng":77.072586,"lines":["Yellow"],"color":"#FFCB05"},{"stop_id":"72","stop_name":"Vaishali","lat":28.650059,"lng":77.337608,"lines":["Blue"],"color":"#0053A5"},{"stop_id":"73","stop_name":"Kaushambi","lat":28.645428,"lng":77.322273,"lines":["Blue"],"color":"#0053A5"},{"stop_id":"74","stop_name":"Anand Vihar","lat":28.647005,"lng":77.316185,"lines":["Blue","Pink"],"color":"#0053A5"},{"stop_id":"75","stop_name":"Karkarduma","lat":28.648653,"lng":77.304581,"lines":["Blue","Pink"],"color":"#0053A5"},{"stop_id":"76","stop_name":"Preet Vihar","lat":28.641352,"lng":77.295158,"lines":["Blue"],"color":"#0053A5"},{"stop_id":"77","stop_name":"Nirman Vihar","lat":28.637049,"lng":77.287872,"lines":["Blue"],"color":"#0053A5"},{"stop_id":"78","stop_name":"Laxmi Nagar","lat":28.629843,"lng":77.276428,"lines":["Blue"],"color":"#0053A5"},{"stop_id":"79","stop_name":"Noida City Centre","lat":28.574593,"lng":77.356117,"lines":["Blue"],"color":"#0053A5"},{"stop_id":"80","stop_name":"Golf Course","lat":28.566917,"lng":77.345726,"lines":["Blue"],"color":"#0053A5"},{"stop_id":"81","stop_name":"Botanical Garden","lat":28.564198,"lng":77.334656,"lines":["Blue","Magenta"],"color":"#0053A5"},{"stop_id":"82","stop_name":"Noida Sec -18","lat":28.570843,"lng":77.326088,"lines":["Blue"],"color":"#0053A5"},{"stop_id":"83","stop_name":"Noida Sec -16","lat":28.577921,"lng":77.318115,"lines":["Blue"],"color":"#0053A5"},{"stop_id":"84","stop_name":"Noida Sec -15","lat":28.585018,"lng":77.311584,"lines":["Blue"],"color":"#0053A5"},{"stop_id":"85","stop_name":"New Ashok Nagar","lat":28.58847,"lng":77.30146,"lines":["Blue"],"color":"#0053A5"},{"stop_id":"86","stop_name":"Mayur Vihar Ext","lat":28.594124,"lng":77.294495,"lines":["Blue"],"color":"#0053A5"},{"stop_id":"87","stop_name":"Mayur Vihar-I","lat":28.604425,"lng":77.289421,"lines":["Blue","Pink"],"color":"#0053A5"},{"stop_id":"88","stop_name":"Akshardham","lat":28.618364,"lng":77.279816,"lines":["Blue"],"color":"#0053A5"},{"stop_id":"89","stop_name":"Yamuna Bank","lat":28.623178,"lng":77.267937,"lines":["Blue"],"color":"#0053A5"},{"stop_id":"90","stop_name":"Indraprastha","lat":28.620272,"lng":77.250076,"lines":["Blue"],"color":"#0053A5"},{"stop_id":"91","stop_name":"Supreme Court","lat":28.623438,"lng":77.2425,"lines":["Blue"],"color":"#0053A5"},{"stop_id":"92","stop_name":"Mandi House","lat":28.625816,"lng":77.234726,"lines":["Blue","Violet"],"color":"#0053A5"},{"stop_id":"93","stop_name":"Barakhamba","lat":28.629662,"lng":77.224876,"lines":["Blue"],"color":"#0053A5"},{"stop_id":"94","stop_name":"RK Ashram Marg","lat":28.639217,"lng":77.206291,"lines":["Blue"],"color":"#0053A5"},{"stop_id":"95","stop_name":"Jhandewalan","lat":28.644312,"lng":77.199791,"lines":["Blue"],"color":"#0053A5"},{"stop_id":"96","stop_name":"Karol Bagh","lat":28.643925,"lng":77.188416,"lines":["Blue"],"color":"#0053A5"},{"stop_id":"97","stop_name":"Rajendra Place","lat":28.64241,"lng":77.191833,"lines":["Blue"],"color":"#0053A5"},{"stop_id":"98","stop_name":"Patel Nagar","lat":28.645037,"lng":77.167046,"lines":["Blue"],"color":"#0053A5"},{"stop_id":"99","stop_name":"Shadipur","lat":28.65143,"lng":77.156021,"lines":["Blue"],"color":"#0053A5"},{"stop_id":"100","stop_name":"Kirti Nagar","lat":28.655773,"lng":77.148499,"lines":["Blue","Green"],"color":"#0053A5"},{"stop_id":"101","stop_name":"Moti Nagar","lat":28.657803,"lng":77.140488,"lines":["Blue"],"color":"#0053A5"},{"stop_id":"102","stop_name":"Ramesh Nagar","lat":28.652809,"lng":77.131462,"lines":["Blue"],"color":"#0053A5"},{"stop_id":"103","stop_name":"Rajouri Garden","lat":28.649157,"lng":77.122749,"lines":["Blue","Pink"],"color":"#0053A5"},{"stop_id":"104","stop_name":"Tagore Garden","lat":28.643795,"lng":77.112747,"lines":["Blue"],"color":"#0053A5"},{"stop_id":"105","stop_name":"Subash Nagar","lat":28.640381,"lng":77.10273,"lines":["Blue"],"color":"#0053A5"},{"stop_id":"106","stop_name":"Tilak Nagar","lat":28.636568,"lng":77.096336,"lines":["Blue"],"color":"#0053A5"},{"stop_id":"107","stop_name":"Janak Puri East","lat":28.633121,"lng":77.086578,"lines":["Blue"],"color":"#0053A5"},{"stop_id":"108","stop_name":"Janak Puri West","lat":28.629637,"lng":77.077866,"lines":["Blue","Magenta"],"color":"#0053A5"},{"stop_id":"109","stop_name":"Uttam Nagar East","lat":28.624643,"lng":77.063126,"lines":["Blue"],"color":"#0053A5"},{"stop_id":"110","stop_name":"Uttam Nagar West","lat":28.621672,"lng":77.055664,"lines":["Blue"],"color":"#0053A5"},{"stop_id":"111","stop_name":"Nawada","lat":28.620222,"lng":77.044991,"lines":["Blue"],"color":"#0053A5"},{"stop_id":"112","stop_name":"Dwarka Mor","lat":28.619366,"lng":77.033188,"lines":["Blue"],"color":"#0053A5"},{"stop_id":"113","stop_name":"Dwarka","lat":28.614899,"lng":77.022629,"lines":["Blue","Grey"],"color":"#0053A5"},{"stop_id":"114","stop_name":"Dwarka Sector - 14","lat":28.602232,"lng":77.02594,"lines":["Blue"],"color":"#0053A5"},{"stop_id":"115","stop_name":"Dwarka Sector - 13","lat":28.59705,"lng":77.033043,"lines":["Blue"],"color":"#0053A5"},{"stop_id":"116","stop_name":"Dwarka Sector - 12","lat":28.592234,"lng":77.040558,"lines":["Blue"],"color":"#0053A5"},{"stop_id":"117","stop_name":"Dwarka Sector - 11","lat":28.58642,"lng":77.049255,"lines":["Blue"],"color":"#0053A5"},{"stop_id":"118","stop_name":"Dwarka Sector - 10","lat":28.581108,"lng":77.05719,"lines":["Blue"],"color":"#0053A5"},{"stop_id":"119","stop_name":"Dwarka Sector - 9","lat":28.574284,"lng":77.065086,"lines":["Blue"],"color":"#0053A5"},{"stop_id":"120","stop_name":"Dwarka Sector - 8","lat":28.565706,"lng":77.064896,"lines":["Blue"],"color":"#0053A5"},{"stop_id":"121","stop_name":"Dwarka Sector - 21","lat":28.552322,"lng":77.056198,"lines":["Blue","Airport Express"],"color":"#0053A5"},{"stop_id":"122","stop_name":"ITO","lat":28.627205,"lng":77.240952,"lines":["Violet"],"color":"#8B5FA0"},{"stop_id":"123","stop_name":"Janpath","lat":28.627817,"lng":77.218956,"lines":["Violet"],"color":"#8B5FA0"},{"stop_id":"124","stop_name":"Khan Market","lat":28.602682,"lng":77.228096,"lines":["Violet"],"color":"#8B5FA0"},{"stop_id":"125","stop_name":"Jawahar Lal Nehru Stadium","lat":28.590475,"lng":77.23307,"lines":["Violet"],"color":"#8B5FA0"},{"stop_id":"126","stop_name":"Jangpura","lat":28.583231,"lng":77.239662,"lines":["Violet"],"color":"#8B5FA0"},{"stop_id":"127","stop_name":"Lajpat Nagar","lat":28.570705,"lng":77.233124,"lines":["Violet","Pink"],"color":"#8B5FA0"},{"stop_id":"128","stop_name":"Moolchand","lat":28.564629,"lng":77.234222,"lines":["Violet"],"color":"#8B5FA0"},{"stop_id":"129","stop_name":"Kailash Colony","lat":28.554617,"lng":77.239738,"lines":["Violet"],"color":"#8B5FA0"},{"stop_id":"130","stop_name":"Nehru Place","lat":28.551134,"lng":77.251511,"lines":["Violet"],"color":"#8B5FA0"},{"stop_id":"131","stop_name":"Kalkaji Mandir","lat":28.549532,"lng":77.258789,"lines":["Violet","Magenta"],"color":"#8B5FA0"},{"stop_id":"132","stop_name":"Govind Puri","lat":28.544413,"lng":77.264259,"lines":["Violet"],"color":"#8B5FA0"},{"stop_id":"133","stop_name":"Harkesh Nagar Okhla","lat":28.543194,"lng":77.275955,"lines":["Violet"],"color":"#8B5FA0"},{"stop_id":"134","stop_name":"Jasola-Apollo","lat":28.538084,"lng":77.285538,"lines":["Violet"],"color":"#8B5FA0"},{"stop_id":"135","stop_name":"Sarita Vihar","lat":28.528622,"lng":77.288345,"lines":["Violet"],"color":"#8B5FA0"},{"stop_id":"136","stop_name":"Mohan Estate","lat":28.51959,"lng":77.294518,"lines":["Violet"],"color":"#8B5FA0"},{"stop_id":"137","stop_name":"Tughlakabad Station","lat":28.502232,"lng":77.29866,"lines":["Violet"],"color":"#8B5FA0"},{"stop_id":"138","stop_name":"Badarpur Border","lat":28.4932,"lng":77.30085,"lines":["Violet"],"color":"#8B5FA0"},{"stop_id":"139","stop_name":"Sarai","lat":28.47794,"lng":77.304932,"lines":["Violet"],"color":"#8B5FA0"},{"stop_id":"140","stop_name":"NHPC Chowk","lat":28.462435,"lng":77.305252,"lines":["Violet"],"color":"#8B5FA0"},{"stop_id":"141","stop_name":"Mewala Maharajpur","lat":28.4485,"lng":77.308098,"lines":["Violet"],"color":"#8B5FA0"},{"stop_id":"142","stop_name":"Sector-28","lat":28.440586,"lng":77.305992,"lines":["Violet"],"color":"#8B5FA0"},{"stop_id":"143","stop_name":"Badkal Mor","lat":28.422707,"lng":77.310234,"lines":["Violet"],"color":"#8B5FA0"},{"stop_id":"144","stop_name":"Old Faridabad","lat":28.412172,"lng":77.311272,"lines":["Violet"],"color":"#8B5FA0"},{"stop_id":"145","stop_name":"Neelam Chowk Ajronda","lat":28.400707,"lng":77.309105,"lines":["Violet"],"color":"#8B5FA0"},{"stop_id":"146","stop_name":"Bata Chowk","lat":28.386362,"lng":77.298782,"lines":["Violet"],"color":"#8B5FA0"},{"stop_id":"147","stop_name":"Escorts Mujesar","lat":28.370199,"lng":77.315002,"lines":["Violet"],"color":"#8B5FA0"},{"stop_id":"148","stop_name":"Sikanderpur (Rapid Metro)","lat":28.480833,"lng":77.094246,"lines":["Rapid Metro"],"color":"#FFA500"},{"stop_id":"149","stop_name":"Phase 2 (Rapid Metro)","lat":28.488371,"lng":77.092865,"lines":["Rapid Metro"],"color":"#FFA500"},{"stop_id":"150","stop_name":"Belvedere Towers (Rapid Metro)","lat":28.492065,"lng":77.088142,"lines":["Rapid Metro"],"color":"#FFA500"},{"stop_id":"151","stop_name":"Cyber City (Rapid Metro)","lat":28.498478,"lng":77.089088,"lines":["Rapid Metro"],"color":"#FFA500"},{"stop_id":"152","stop_name":"Moulsari Avenue (Rapid Metro)","lat":28.501572,"lng":77.094536,"lines":["Rapid Metro"],"color":"#FFA500"},{"stop_id":"153","stop_name":"Phase 3 (Rapid Metro)","lat":28.494329,"lng":77.093552,"lines":["Rapid Metro"],"color":"#FFA500"},{"stop_id":"154","stop_name":"IGI Airport","lat":28.554869,"lng":77.087921,"lines":["Airport Express"],"color":"#F57F17"},{"stop_id":"155","stop_name":"Delhi Aerocity","lat":28.548792,"lng":77.120743,"lines":["Airport Express"],"color":"#F57F17"},{"stop_id":"156","stop_name":"Dhaula Kuan","lat":28.591776,"lng":77.161545,"lines":["Airport Express"],"color":"#F57F17"},{"stop_id":"157","stop_name":"Shivaji Stadium","lat":28.629007,"lng":77.209213,"lines":["Airport Express"],"color":"#F57F17"},{"stop_id":"158","stop_name":"Delhi Gate","lat":28.640488,"lng":77.240303,"lines":["Violet"],"color":"#8B5FA0"},{"stop_id":"159","stop_name":"Jama Masjid","lat":28.650393,"lng":77.237556,"lines":["Violet"],"color":"#8B5FA0"},{"stop_id":"160","stop_name":"Lal Quila","lat":28.657576,"lng":77.236595,"lines":["Violet"],"color":"#8B5FA0"},{"stop_id":"161","stop_name":"Okhla Bird Sanctuary","lat":28.552816,"lng":77.321564,"lines":["Magenta"],"color":"#B9539F"},{"stop_id":"162","stop_name":"Kalindi Kunj","lat":28.542835,"lng":77.310173,"lines":["Magenta"],"color":"#B9539F"},{"stop_id":"163","stop_name":"Jasola Vihar Shaheen Bagh","lat":28.546005,"lng":77.296715,"lines":["Magenta"],"color":"#B9539F"},{"stop_id":"164","stop_name":"Okhla Vihar","lat":28.561255,"lng":77.291916,"lines":["Magenta"],"color":"#B9539F"},{"stop_id":"165","stop_name":"Jamia Millia Islamia","lat":28.562944,"lng":77.286209,"lines":["Magenta"],"color":"#B9539F"},{"stop_id":"166","stop_name":"Sukhdev Vihar","lat":28.559887,"lng":77.275116,"lines":["Magenta"],"color":"#B9539F"},{"stop_id":"167","stop_name":"Okhla NSIC","lat":28.554575,"lng":77.26487,"lines":["Magenta"],"color":"#B9539F"},{"stop_id":"168","stop_name":"Phase-I (Rapid Metro)","lat":28.471981,"lng":77.094009,"lines":["Rapid Metro"],"color":"#FFA500"},{"stop_id":"169","stop_name":"Sector 42-43 (Rapid Metro)","lat":28.458475,"lng":77.09684,"lines":["Rapid Metro"],"color":"#FFA500"},{"stop_id":"170","stop_name":"Sector 53-54 (Rapid Metro)","lat":28.447533,"lng":77.100487,"lines":["Rapid Metro"],"color":"#FFA500"},{"stop_id":"171","stop_name":"Sector 54 Chowk (Rapid Metro)","lat":28.434212,"lng":77.104782,"lines":["Rapid Metro"],"color":"#FFA500"},{"stop_id":"172","stop_name":"Sector 55-56 (Rapid Metro)","lat":28.424587,"lng":77.105042,"lines":["Rapid Metro"],"color":"#FFA500"},{"stop_id":"173","stop_name":"Majlis Park","lat":28.724157,"lng":77.182068,"lines":["Pink"],"color":"#F186AB"},{"stop_id":"174","stop_name":"Shalimar Bagh","lat":28.70182,"lng":77.165184,"lines":["Pink"],"color":"#F186AB"},{"stop_id":"175","stop_name":"Shakurpur","lat":28.685781,"lng":77.149651,"lines":["Pink"],"color":"#F186AB"},{"stop_id":"176","stop_name":"Punjabi Bagh West","lat":28.672747,"lng":77.139183,"lines":["Pink"],"color":"#F186AB"},{"stop_id":"177","stop_name":"ESI Basai Darapur","lat":28.658159,"lng":77.127319,"lines":["Pink"],"color":"#F186AB"},{"stop_id":"178","stop_name":"Mayapuri","lat":28.637098,"lng":77.129738,"lines":["Pink"],"color":"#F186AB"},{"stop_id":"179","stop_name":"Naraina Vihar","lat":28.624121,"lng":77.136482,"lines":["Pink"],"color":"#F186AB"},{"stop_id":"180","stop_name":"Delhi Cantt.","lat":28.608641,"lng":77.140373,"lines":["Pink"],"color":"#F186AB"},{"stop_id":"181","stop_name":"Durgabai Deshmukh South Campus","lat":28.589376,"lng":77.169518,"lines":["Pink"],"color":"#F186AB"},{"stop_id":"182","stop_name":"Nehru Enclave","lat":28.545856,"lng":77.25116,"lines":["Magenta"],"color":"#B9539F"},{"stop_id":"183","stop_name":"Greater Kailash","lat":28.541836,"lng":77.238243,"lines":["Magenta"],"color":"#B9539F"},{"stop_id":"184","stop_name":"Chirag Delhi","lat":28.541229,"lng":77.229385,"lines":["Magenta"],"color":"#B9539F"},{"stop_id":"185","stop_name":"Panchsheel Park","lat":28.542339,"lng":77.220512,"lines":["Magenta"],"color":"#B9539F"},{"stop_id":"186","stop_name":"IIT","lat":28.547194,"lng":77.193832,"lines":["Magenta"],"color":"#B9539F"},{"stop_id":"187","stop_name":"RK Puram","lat":28.550486,"lng":77.184952,"lines":["Magenta"],"color":"#B9539F"},{"stop_id":"188","stop_name":"Munirka","lat":28.557821,"lng":77.174026,"lines":["Magenta"],"color":"#B9539F"},{"stop_id":"189","stop_name":"Vasant Vihar","lat":28.558378,"lng":77.160774,"lines":["Magenta"],"color":"#B9539F"},{"stop_id":"190","stop_name":"Shankar Vihar","lat":28.560787,"lng":77.140442,"lines":["Magenta"],"color":"#B9539F"},{"stop_id":"191","stop_name":"Terminal 1- IGI Airport","lat":28.565275,"lng":77.122391,"lines":["Magenta"],"color":"#B9539F"},{"stop_id":"192","stop_name":"Sadar Bazar Contonment","lat":28.577108,"lng":77.111305,"lines":["Magenta"],"color":"#B9539F"},{"stop_id":"193","stop_name":"Palam","lat":28.589067,"lng":77.082954,"lines":["Magenta"],"color":"#B9539F"},{"stop_id":"194","stop_name":"Dashrath Puri","lat":28.602333,"lng":77.08255,"lines":["Magenta"],"color":"#B9539F"},{"stop_id":"195","stop_name":"Dabri Mor - Janakpuri South","lat":28.615904,"lng":77.085258,"lines":["Magenta"],"color":"#B9539F"},{"stop_id":"196","stop_name":"Mundka Industrial Area (M.I.A)","lat":28.68396,"lng":76.989822,"lines":["Green"],"color":"#00A650"},{"stop_id":"197","stop_name":"Ghevra Metro station","lat":28.685289,"lng":76.993584,"lines":["Green"],"color":"#00A650"},{"stop_id":"198","stop_name":"Tikri Kalan","lat":28.686899,"lng":76.977249,"lines":["Green"],"color":"#00A650"},{"stop_id":"199","stop_name":"Tikri Border","lat":28.687876,"lng":76.963783,"lines":["Green"],"color":"#00A650"},{"stop_id":"200","stop_name":"Pandit Shree Ram Sharma","lat":28.689213,"lng":76.951088,"lines":["Green"],"color":"#00A650"},{"stop_id":"201","stop_name":"Bahadurgarh City","lat":28.690784,"lng":76.935265,"lines":["Green"],"color":"#00A650"},{"stop_id":"202","stop_name":"Brigadier Hoshiyar Singh","lat":28.697428,"lng":76.919128,"lines":["Green"],"color":"#00A650"},{"stop_id":"203","stop_name":"Sir Vishweshwaraiah Moti Bagh","lat":28.578529,"lng":77.175713,"lines":["Pink"],"color":"#F186AB"},{"stop_id":"204","stop_name":"Bhikaji Cama Place","lat":28.570208,"lng":77.187866,"lines":["Pink"],"color":"#F186AB"},{"stop_id":"205","stop_name":"Sarojini Nagar","lat":28.570208,"lng":77.187866,"lines":["Pink"],"color":"#F186AB"},{"stop_id":"206","stop_name":"South Extension","lat":28.5686,"lng":77.219818,"lines":["Pink"],"color":"#F186AB"},{"stop_id":"207","stop_name":"Trilokpuri Sanjay Lake","lat":28.613506,"lng":77.308678,"lines":["Pink"],"color":"#F186AB"},{"stop_id":"208","stop_name":"East Vinod Nagar - Mayur Vihar-II","lat":28.620052,"lng":77.305588,"lines":["Pink"],"color":"#F186AB"},{"stop_id":"209","stop_name":"Mandawali - West Vinod Nagar","lat":28.624861,"lng":77.304146,"lines":["Pink"],"color":"#F186AB"},{"stop_id":"210","stop_name":"IP Extension","lat":28.631599,"lng":77.310898,"lines":["Pink"],"color":"#F186AB"},{"stop_id":"211","stop_name":"Karkarduma Court","lat":28.649473,"lng":77.295341,"lines":["Pink"],"color":"#F186AB"},{"stop_id":"212","stop_name":"Krishna Nagar","lat":28.65782,"lng":77.290306,"lines":["Pink"],"color":"#F186AB"},{"stop_id":"213","stop_name":"East Azad Nagar","lat":28.665043,"lng":77.284599,"lines":["Pink"],"color":"#F186AB"},{"stop_id":"214","stop_name":"Jafrabad","lat":28.682943,"lng":77.27507,"lines":["Pink"],"color":"#F186AB"},{"stop_id":"215","stop_name":"Maujpur - Babarpur","lat":28.692057,"lng":77.280922,"lines":["Pink"],"color":"#F186AB"},{"stop_id":"216","stop_name":"Gokulpuri","lat":28.703009,"lng":77.286301,"lines":["Pink"],"color":"#F186AB"},{"stop_id":"217","stop_name":"Johri Enclave","lat":28.713297,"lng":77.290154,"lines":["Pink"],"color":"#F186AB"},{"stop_id":"218","stop_name":"Shiv Vihar","lat":28.721863,"lng":77.289635,"lines":["Pink"],"color":"#F186AB"},{"stop_id":"219","stop_name":"Sant Surdas (Sihi)","lat":28.354666,"lng":77.316261,"lines":["Violet"],"color":"#8B5FA0"},{"stop_id":"220","stop_name":"Raja Nahar Singh","lat":28.339899,"lng":77.331657,"lines":["Violet"],"color":"#8B5FA0"},{"stop_id":"221","stop_name":"Vinobapuri","lat":28.566179,"lng":77.249367,"lines":["Pink"],"color":"#F186AB"},{"stop_id":"222","stop_name":"Ashram","lat":28.576065,"lng":77.25753,"lines":["Pink"],"color":"#F186AB"},{"stop_id":"223","stop_name":"Sarai Kale Khan - Nizamuddin","lat":28.5889,"lng":77.253189,"lines":["Pink"],"color":"#F186AB"},{"stop_id":"224","stop_name":"Mayur Vihar Pocket 1","lat":28.606598,"lng":77.296326,"lines":["Pink"],"color":"#F186AB"},{"stop_id":"225","stop_name":"Shaheed Sthal (New Bus Adda)","lat":28.670177,"lng":77.416031,"lines":["Red"],"color":"#EE1C25"},{"stop_id":"226","stop_name":"Hindon River","lat":28.673508,"lng":77.40654,"lines":["Red"],"color":"#EE1C25"},{"stop_id":"227","stop_name":"Arthala","lat":28.6772,"lng":77.391876,"lines":["Red"],"color":"#EE1C25"},{"stop_id":"228","stop_name":"Mohan Nagar","lat":28.67856,"lng":77.384209,"lines":["Red"],"color":"#EE1C25"},{"stop_id":"229","stop_name":"Shyam Park","lat":28.678217,"lng":77.370911,"lines":["Red"],"color":"#EE1C25"},{"stop_id":"230","stop_name":"Major Mohit Sharma Rajender Nagar","lat":28.678095,"lng":77.359528,"lines":["Red"],"color":"#EE1C25"},{"stop_id":"231","stop_name":"Raj Bagh","lat":28.677122,"lng":77.346466,"lines":["Red"],"color":"#EE1C25"},{"stop_id":"232","stop_name":"Shaheed Nagar","lat":28.676615,"lng":77.333809,"lines":["Red"],"color":"#EE1C25"},{"stop_id":"233","stop_name":"Noida Sec-34","lat":28.580229,"lng":77.363518,"lines":["Blue"],"color":"#0053A5"},{"stop_id":"234","stop_name":"Noida Sec-52","lat":28.586849,"lng":77.372749,"lines":["Blue"],"color":"#0053A5"},{"stop_id":"235","stop_name":"Noida Sec-61","lat":28.597677,"lng":77.372368,"lines":["Blue"],"color":"#0053A5"},{"stop_id":"236","stop_name":"Noida Sec-59","lat":28.609089,"lng":77.372955,"lines":["Blue"],"color":"#0053A5"},{"stop_id":"237","stop_name":"Noida Sec-62","lat":28.616991,"lng":77.373611,"lines":["Blue"],"color":"#0053A5"},{"stop_id":"238","stop_name":"Noida Electronic City","lat":28.628685,"lng":77.375229,"lines":["Blue"],"color":"#0053A5"},{"stop_id":"239","stop_name":"Nangli","lat":28.61722,"lng":77.010345,"lines":["Grey"],"color":"#9E9E9E"},{"stop_id":"240","stop_name":"Najafgarh","lat":28.613316,"lng":76.986259,"lines":["Grey"],"color":"#9E9E9E"},{"stop_id":"241","stop_name":"Dhansa Bus Stand","lat":28.611858,"lng":76.975426,"lines":["Grey"],"color":"#9E9E9E"},{"stop_id":"500","stop_name":"Noida Sector 51","lat":28.585548,"lng":77.375374,"lines":["Aqua"],"color":"#00BCD4"},{"stop_id":"501","stop_name":"Noida Sector 50","lat":28.574547,"lng":77.378357,"lines":["Aqua"],"color":"#00BCD4"},{"stop_id":"502","stop_name":"Noida Sector 76","lat":28.565445,"lng":77.37973,"lines":["Aqua"],"color":"#00BCD4"},{"stop_id":"503","stop_name":"Noida Sector 101","lat":28.556065,"lng":77.385056,"lines":["Aqua"],"color":"#00BCD4"},{"stop_id":"504","stop_name":"Noida Sector 81","lat":28.549259,"lng":77.390099,"lines":["Aqua"],"color":"#00BCD4"},{"stop_id":"505","stop_name":"NSEZ","lat":28.532248,"lng":77.394951,"lines":["Aqua"],"color":"#00BCD4"},{"stop_id":"506","stop_name":"Noida Sector 83","lat":28.522284,"lng":77.396477,"lines":["Aqua"],"color":"#00BCD4"},{"stop_id":"507","stop_name":"Noida Sector 137","lat":28.510817,"lng":77.403625,"lines":["Aqua"],"color":"#00BCD4"},{"stop_id":"508","stop_name":"Noida Sector 142","lat":28.498999,"lng":77.412567,"lines":["Aqua"],"color":"#00BCD4"},{"stop_id":"509","stop_name":"Noida Sector 143","lat":28.494246,"lng":77.422318,"lines":["Aqua"],"color":"#00BCD4"},{"stop_id":"510","stop_name":"Noida Sector 144","lat":28.486376,"lng":77.432968,"lines":["Aqua"],"color":"#00BCD4"},{"stop_id":"511","stop_name":"Noida Sector 145","lat":28.47913,"lng":77.442307,"lines":["Aqua"],"color":"#00BCD4"},{"stop_id":"512","stop_name":"Noida Sector 146","lat":28.468822,"lng":77.455101,"lines":["Aqua"],"color":"#00BCD4"},{"stop_id":"513","stop_name":"Noida Sector 147","lat":28.4594,"lng":77.465965,"lines":["Aqua"],"color":"#00BCD4"},{"stop_id":"514","stop_name":"Noida Sector 148","lat":28.448021,"lng":77.476692,"lines":["Aqua"],"color":"#00BCD4"},{"stop_id":"515","stop_name":"Knowledge Park","lat":28.456865,"lng":77.500298,"lines":["Aqua"],"color":"#00BCD4"},{"stop_id":"516","stop_name":"Pari Chowk","lat":28.463331,"lng":77.508308,"lines":["Aqua"],"color":"#00BCD4"},{"stop_id":"517","stop_name":"Alpha 1","lat":28.470879,"lng":77.512718,"lines":["Aqua"],"color":"#00BCD4"},{"stop_id":"518","stop_name":"Delta 1","lat":28.478374,"lng":77.525581,"lines":["Aqua"],"color":"#00BCD4"},{"stop_id":"519","stop_name":"GNIDA Office","lat":28.484531,"lng":77.536621,"lines":["Aqua"],"color":"#00BCD4"},{"stop_id":"520","stop_name":"Depot Station","lat":28.488651,"lng":77.544075,"lines":["Aqua"],"color":"#00BCD4"}]